ID,f_name,Year,recordcount,HY,CJId,HaD,gltype,glname,latitude,longitude
259963,百合花集团股份有限公司,,0,其他日用化学产品制造,32706,0,0,,30.268256,120.600591
279524,江苏新春兴再生资源有限责任公司,,0,金属制品业,6199,0,0,,34.000000,118.000000
282433,宝钢集团广东韶关钢铁集团有限公司,,0,钢压延加工,25999,0,0,,24.693185,113.635883
302570,康县华泰黄金矿业有限公司,,0,采矿业,36199,0,0,,33.381383,105.474563
11095783,江油启明星氯碱化工有限公司,2011,3,化学原料和化学制品制造业,31510,0,0,,31.623370,104.717410
11698298,九江标新纤维有限公司,2019,4,纺织业,6821,1,0,,29.946887,116.603111
1339560,长阳蒙特錳业有限责任公司,,0,,0,0,0,,30.536649,111.074886
3449701,永新县嘉盛皮革皮件有限公司,,0,皮革、毛皮、羽毛及其制品和制鞋业,0,0,0,,26.945002,114.243096
3455105,逊克县维康医疗垃圾处理站,,0,环境治理业,0,0,0,,49.156947,125.315102
11199322,瀚蓝（惠安）固废处理有限公司,,0,垃圾焚烧发电,16969,1,0,,24.944505,118.854300
105457,海宁伟龙印染有限公司,2018,13,棉印染精加工,25915,1,0,,30.462530,120.370800
107829,嘉禾县鑫光工贸有限公司,2012,1,黑色金属冶炼和压延加工业,0,0,0,,25.631787,112.481146
3455048,大庆油田矿区服务事业部外围物业公司庆新垃圾场,,0,固体废物治理,0,0,0,,46.634109,124.909728
194401,恭城岛坪铅锌矿有限公司,2016,1,有色金属矿采选业,24916,0,0,,24.837231,110.830552
11709336,山东荣信集团有限公司,2017,4,石油、煤炭及其他燃料加工业,26499,1,0,,35.329047,116.819093
3454150,福建省尤溪县金鸡岭矿业有限公司,,0,有色金属矿采选业,0,0,0,,26.307494,118.263196
510923,南京台兴汽车零部件制造有限公司,2017,5,汽车制造业,59037,0,0,,31.689128,119.042767
1480528,甘肃艾曼工贸有限责任公司,,0,皮革鞣制加工,67818,0,0,,35.602000,103.778989
13537,江苏狼山钢绳股份有限公司,2018,6,金属制品业,0,0,0,,32.077112,120.777229
122401,辽阳裕丰化工有限公司,2016,2,化学原料和化学制品制造业,0,0,0,,41.224468,123.044270
37346,扬州龙川钢管有限公司,2016,3,铸造及其他金属制品制造,48148,0,0,,32.349840,119.722240
3451034,内乡县殡仪馆,,0,遗体火化,0,0,0,,33.199208,112.059660
208200,扬州新鑫新能源科技有限公司,2015,3,燃气及类似能源家用器具制造,48139,1,0,,32.614578,119.254242
100003,岷县天昊黄金有限责任公司,,0,有色金属矿采选业,31616,0,0,,34.368323,103.957725
565972,兰州兰石集团有限公司,2018,4,石油和天然气开采专业及辅助性活动,0,0,0,,36.495740,103.694390
135596,楚雄滇中有色金属有限责任公司,2015,4,有色金属冶炼和压延加工业,1219,1,0,,25.060420,101.572690
308199,江苏科耐尔新能源科技有限公司,,0,电池制造,0,0,0,,34.529510,116.629780
320111,鞍钢矿业爆破有限公司,2016,1,炸药及火工产品制造,0,0,0,,41.069892,123.059165
3450688,湖南神斧向红机械化工有限公司,,0,化学原料和化学制品制造业,0,0,0,,29.140104,113.098006
11662210,湖南省振强锑业有限责任公司,2016,3,有色金属冶炼和压延加工业,4883,0,0,,27.772836,111.499579
74086,广西北流明华皮革制品有限公司,,0,其他皮革制品制造,0,0,0,,22.715822,110.290350
11662223,湖南省三立集团股份有限公司,2017,6,采矿业,4841,0,0,,28.594160,109.502900
90883,天脊煤化工集团股份有限公司,2019,21,肥料制造,18337,0,0,,36.323835,113.256428
156245,四川省九寨沟县紫金矿业有限公司,,0,金矿采选,0,0,0,,33.246354,104.247979
227345,首钢股份公司迁安钢铁公司,2019,6,炼铁,23974,1,0,,39.996471,118.592069
307706,山东天龙环保科技有限公司垦利分公司,2017,5,水污染治理,38571,0,0,,37.551269,118.433420
279413,会理县马鞍坪矿山废石综合利用有限责任公司,,0,有色金属矿采选业,5482,0,0,,26.177292,101.970549
1336821,衡东县源祥有色金属购销有限责任公司,2018,4,有色金属冶炼和压延加工业,0,0,0,,27.119110,112.945837
526288,酒钢肃南宏兴矿业有限责任公司,,0,有色金属矿采选业,67678,0,0,,39.296161,97.946618
3402913,贵溪市泰丰金属有限公司,,0,有色金属冶炼和压延加工业,52728,0,0,,28.343701,117.228779
74635,深圳市航盛电路科技股份有限公司,2011,4,智能无人飞行器制造,15591,0,0,,22.535570,113.953690
1446268,华北制药河北华民药业有限责任公司石家庄藁城倍达分厂,,0,化学药品原料药制造,0,0,0,,38.023788,114.723801
3450340,新源县垃圾处理厂,,0,环境治理业,0,0,0,,43.429930,83.260770
3454991,大庆市城管委向阳垃圾处理厂,,0,环境治理业,0,0,0,,46.065639,124.611413
126023,晋煤恒盛化工有限公司,2013,1,化学原料和化学制品制造业,21047,0,0,,34.377283,118.342015
72912,辽宁宏丰印染有限公司,2017,6,棉纺织及印染精加工,7370,1,0,,41.004780,121.119460
78965,零八一电子集团四川天源机械有限公司,2017,4,通用设备制造业,7619,1,0,,32.439237,105.846752
175263,川亿电脑（重庆）有限公司,,0,电子真空器件制造,1227,1,0,,29.290803,105.918819
322562,湖南仁和惠明环保科技有限公司,,0,,0,0,0,,28.222660,112.988030
1419353,锦州市绿源危险废物处置有限公司,2018,1,非金属废料和碎屑加工处理,0,0,0,,41.216359,121.142515
228240,靖远宏达矿业有限责任公司,,0,采矿业,16389,1,0,,36.724444,104.468611
1418682,洛阳坤宇矿业有限公司五龙金矿,,0,其他采矿业,40754,0,0,,34.390626,111.644092
3400505,大连金州金海废物综合利用材料厂,,0,隔热和隔音材料制造,0,0,0,,39.222818,121.797123
69776,广东粤电靖海发电有限公司,2010,1,火力发电,2877,1,0,,23.009765,116.520406
70860,西林钢铁集团有限公司,2019,6,炼铁,12534,1,0,,47.494351,129.297119
71886,湖北益泰药业股份有限公司,2012,1,化学药品原料药制造,4735,1,0,,30.631020,113.181560
3451130,定西市城市生活垃圾处理场,,0,环境治理业,0,0,0,,35.559816,104.583137
76414,古田福兴医药有限公司,,0,化学药品原料药制造,2770,1,0,,26.430470,118.633700
11670287,福建建宁汇能环保科技有限公司,2017,5,其他污染治理,52952,0,0,,26.858453,116.872667
293572,秦皇岛首钢长白结晶器有限责任公司,,0,,0,0,0,,39.808634,119.408025
178408,葫芦岛市水泉炭浆有限公司,,0,有色金属矿采选业,4994,0,0,,40.926119,120.899334
523124,四川省迪威药业有限责任公司,,0,化学药品制剂制造,0,0,0,,29.781671,104.867180
182152,青海山金矿业有限公司,2016,2,贵金属冶炼,26204,0,0,,35.989535,97.887239
227714,镇江市和云工业废水处置有限公司,2016,4,固体废物治理,20948,1,0,,32.098490,119.724820
3450949,鹤壁市绿源再生资源有限公司,,0,非金属废料和碎屑加工处理,0,0,0,,35.925617,114.249863
941303,沾化繁荣皮革有限公司,2018,3,皮革鞣制加工,23360,1,0,,37.798267,118.171841
1015481,宁夏庆华煤化集团有限公司,2016,4,石油、煤炭及其他燃料加工业,18697,1,0,,37.377967,106.599546
1330843,青海云海环保服务有限公司,,0,,60799,0,0,,36.872075,101.748246
63439,淮北启明蓄电池制造有限公司,2010,2,电池制造,30280,0,0,,33.970225,116.754778
185659,义马天新四维机械有限责任公司,,0,矿山机械制造,13471,0,0,,35.212222,112.549444
186269,云南云铜马关有色金属有限责任公司,2016,2,有色金属矿采选业,17099,0,0,,23.083421,104.453275
3451054,上蔡县日昇医疗废物处置有限公司,,0,非金属废料和碎屑加工处理,0,0,0,,33.122230,114.394625
3454938,萝北县垃圾处理厂,,0,环境治理业,0,0,0,,47.577495,130.828626
226495,成都市东方伟业合金有限公司,,0,有色金属合金制造,27950,0,0,,30.493700,104.484970
11687649,湖北京山楚天钡盐有限公司,2012,3,无机盐制造,4650,1,0,,31.190223,113.302523
152835,盛隆化工有限公司,2018,44,煤炭加工,23156,1,0,,34.962818,117.027987
177796,河南中源化学股份有限公司,2017,2,其他采矿业,4333,1,0,,32.570795,113.178346
11715026,旭派电源有限公司,2011,1,电池制造,31542,0,0,,34.098814,118.376314
618874,湖南福湘涂料化工科技有限公司,,0,涂料制造,0,0,0,,28.543079,112.938959
723467,抚顺市隆烨化工南杂木有限公司,,0,炸药及火工产品制造,0,0,0,,41.965370,124.407794
228438,萍乡市精锌化工有限公司,2018,6,基础化学原料制造,23655,0,0,,27.597950,113.667970
639819,漳州华福化工有限公司,,0,专项化学用品制造,0,0,0,,24.610690,117.812270
307912,长沙新宇高分子科技有限公司,2018,3,其他合成材料制造,0,0,0,,28.504500,112.794420
182466,山东洪业化工集团股份有限公司,2017,5,化学原料和化学制品制造业,9790,0,0,,35.319515,115.092320
30667,太原市万光煤焦有限公司,2008,1,炼焦,41020,0,0,,37.933690,111.891560
74080,玉林富英制革有限公司,2017,3,皮革、毛皮、羽毛及其制品和制鞋业,24957,1,0,,22.600867,110.123680
954704,什邡中胜化工有限公司,,0,无机盐制造,0,0,0,,31.133480,104.084880
96529,温州中田能源科技有限公司,2016,4,废弃资源综合利用业,24745,0,0,,28.040069,120.497318
137072,芜湖德豪润达光电科技有限公司,2013,1,电子器件制造,30208,0,0,,31.354243,118.499694
3451055,上蔡县城市生活垃圾处理厂,,0,环境治理业,0,0,0,,33.253572,114.243236
269663,河南台冠电子科技股份有限公司,2016,2,计算机、通信和其他电子设备制造业,59705,0,0,,35.291968,114.111150
589199,河南金凤牧业设备股份有限公司,,0,塑料零件及其他塑料制品制造,0,0,0,,33.349500,114.024050
512059,仙鹤股份有限公司,2017,1,纸和纸板容器制造,42707,1,0,,28.961970,118.936600
994378,嘉兴市红卫中佳表面处理有限公司,2018,9,金属制品业,26335,0,0,,30.622069,120.745805
3450191,宁夏复盛新材料有限公司,,0,有色金属铸造,0,0,0,,37.763570,106.136536
11670288,福建省建阳市荣鑫精细化工有限公司,2015,2,化学原料和化学制品制造业,17094,0,0,,27.304428,118.141136
334544,阿勒泰市金鑫铅锌矿业有限责任公司,,0,有色金属矿采选业,0,0,0,,47.801373,88.355789
455134,江西松聚源矿业有限公司,2016,1,采矿业,0,0,0,,28.669322,115.917573
678933,涿州贝尔森生化科技发展有限公司,,0,专用化学产品制造,0,0,0,,39.561846,115.985833
771349,五常市鑫合矿业有限公司,,0,有色金属矿采选业,0,0,0,,45.096790,127.105350
3405604,绵阳市安州区明航矿物油科技有限公司,,0,,0,0,0,,31.551698,104.491108
3450162,海南环宇新能源有限公司,2018,3,废弃资源综合利用业,0,0,0,,19.809734,109.643944
89463,铜陵市鸿兴化工有限责任公司,2013,3,无机盐制造,28866,0,0,,30.863611,117.748889
118337,新疆阿舍勒铜业股份有限公司,2015,6,有色金属矿采选业,12789,0,0,,48.290300,86.339400
122267,山东华鲁恒升化工股份有限公司,2015,14,复混肥料制造,9801,1,0,,37.465469,116.260409
217424,新乡市万博铜业有限公司,2014,2,有色金属铸造,0,0,0,,35.375102,113.761210
247706,长春市永超标牌电镀厂,2016,2,其他金属加工机械制造,0,0,0,,43.945675,125.379047
3454366,漳州市信隆科技有限公司,,0,,0,0,0,,23.933184,117.359106
3450860,郑州飞机装备责任有限公司,,0,,0,0,0,,34.697912,113.636144
284271,阳煤集团山西吉天利科技有限公司,2016,1,其他非金属加工专用设备制造,29952,0,0,,38.150416,113.377603
3402839,江西南鹰电源科技有限公司,,0,其他电池制造,52750,1,0,,25.761098,114.585884
3454280,泉州市新协志精细化工有限公司,,0,涂料制造,0,0,0,,25.189571,118.925202
64393,黑龙江省泽龙矿业有限责任公司,2016,2,有色金属矿采选业,0,0,0,,49.160598,127.979327
157449,中粤浦项(秦皇岛)马口铁工业有限公司,2019,1,其他未列明金属制品制造,39369,0,0,,40.006235,119.826996
1422147,吉林隆源骐化工有限公司,,0,化学原料和化学制品制造业,0,0,0,,44.129162,125.476051
3405559,广州环投环境服务有限公司（兴丰生活垃圾卫生填埋场）,,0,环境治理业,0,0,0,,23.270192,113.492878
226748,湖北永绍科技股份有限公司,,0,专用化学产品制造,23615,1,0,,30.499099,112.780017
228303,辽宁排山楼黄金矿业有限责任公司,2014,1,有色金属矿采选业,16643,0,0,,42.028747,121.689773
11663848,山西省潞安祥瑞焦化有限公司,2019,30,煤炭加工,39708,1,0,,36.360025,112.932870
282550,洪泽泽清水务有限公司,2018,16,污水处理及其再生利用,26218,1,0,,33.338229,118.934643
1106791,沧州旭阳化工有限公司,2019,7,有机化学原料制造,39579,1,0,,38.294637,117.741628
305332,肃北县博伦公司七角井铁选厂,,0,,36280,0,0,,41.443830,95.969102
3451126,长庆油田第二输油处,,0,石油和天然气开采业,67757,0,0,,36.213422,107.654310
3451827,禹州市城市生活垃圾处理场,,0,环境治理业,60126,0,0,,34.140701,113.488478
41756,中国石油天然气股份有限公司冀东油田分公司,2010,1,石油和天然气开采业,14753,0,0,,39.276525,118.451197
11693250,黄石法姆药业股份有限公司,2017,1,医药制造业,66790,1,0,,30.186953,115.202100
227803,布拖县奔诚矿业有限责任公司,2017,1,有色金属矿采选业,0,0,0,,27.377460,102.821330
1318389,汉源俊磊科技有限公司,2017,1,铜冶炼,0,0,0,,29.232608,102.905757
3457500,三鑫南蕾气门座制造有限公司,,0,,0,0,0,,31.338922,106.051345
282364,永嘉县禾益实业有限公司,2017,7,日用塑料制品制造,25766,1,0,,28.117252,120.704228
400696,延安瑞豪科工贸有限公司,2019,3,科学研究和技术服务业,0,0,0,,36.678814,109.652481
13246,江山化工股份有限公司,2017,9,化学原料和化学制品制造业,14271,1,0,,28.718393,118.631697
11207087,山东国大黄金股份有限公司,2018,10,金冶炼,23334,1,0,,37.412543,120.404438
44521,宝钢集团新疆八一钢铁有限公司,2016,21,炼钢,420,1,0,,43.858340,87.296900
226671,阜阳大峰野再生资源有限公司,,0,,20562,0,0,,32.830770,115.895250
3450374,铜川市医疗废物集中处置中心,,0,环境治理业,0,0,0,,35.107932,109.099507
185244,新邵县云翔矿业有限公司,2017,1,有色金属矿采选业,12892,0,0,,27.372682,111.311181
3451032,南阳市殡仪馆,,0,遗体火化,0,0,0,,32.956538,112.460952
3449994,济宁诚德再生资源有限公司,,0,,0,0,0,,35.456778,116.704694
3450226,达坂城区生活垃圾填埋场,,0,垃圾填埋,0,0,0,,43.363668,88.311099
3455054,美溪区垃圾填埋场,,0,垃圾填埋,0,0,0,,47.635090,129.129314
53545,山西永鑫煤焦化有限责任公司,2019,8,有机化学原料制造,24101,1,0,,36.386006,112.185449
216100,福建省建宁县金科矿业有限公司,2015,1,有色金属矿采选业,0,0,0,,26.740135,116.660959
219646,福建省龙岩宏宇矿业有限公司,2016,6,其他常用有色金属冶炼,0,0,0,,24.708457,116.915521
152531,山东鲁抗生物制造有限公司,2016,1,生物药品制品制造,41595,0,0,,35.336520,116.794840
157310,蓝田尧柏水泥有限公司,2014,1,水泥、石灰和石膏制造,12485,1,0,,34.051890,109.269064
180331,临武县泡金山铅锌矿有限公司,2017,1,有色金属矿采选业,7485,0,0,,25.367838,112.562177
235712,中国石化催化剂有限公司北京奥达分公司,2019,22,专用化学产品制造,40495,1,0,,39.815446,116.564895
257375,翔鹭石化（漳州）有限公司,2016,2,专项化学用品制造,32688,1,0,,23.793190,117.636450
259394,徐州强盛城市煤气有限公司,2018,11,燃气生产和供应业,41937,0,0,,34.430475,117.373327
305312,金塔县亚泰有色金属有限公司,,0,有色金属矿采选业,36271,0,0,,39.961878,98.892614
3454270,泉州飞龙宏业环保产业有限公司,2017,1,,53597,0,0,,24.993855,118.095461
970927,首钢伊犁钢铁有限公司,2018,20,黑色金属冶炼和压延加工业,10779,1,0,,43.528530,83.277070
253473,重庆有研重冶新材料有限公司,2016,3,有色金属铸造,0,0,0,,28.942734,106.713888
111926,河南金马蓄电池有限公司,2014,1,其他电池制造,59793,0,0,,35.550970,113.705110
3450985,河南省众和环保科技有限公司,,0,,0,0,0,,35.778680,115.064749
227252,饶平县新生金属材料厂有限公司,,0,金属废料和碎屑加工处理,16256,0,0,,23.681481,116.904416
227635,永福县新福大矿业有限公司,,0,有色金属矿采选业,24906,0,0,,25.234000,110.034000
11680488,保定市徐水区宏达盛通铅制品有限责任公司,2018,3,其他未列明金属制品制造,0,0,0,,38.956646,115.626181
241521,吉林省国华二道甸子金矿有限责任公司,2015,1,有色金属矿采选业,46428,0,0,,43.146828,127.156059
3450754,宜章县裕源有色金属矿,,0,采矿业,0,0,0,,26.401058,113.283541
11156582,达州市玖源化工有限公司,2015,3,肥料制造,1272,0,0,,31.137300,107.470090
1084889,桓台县鑫荣化工有限公司,2018,5,化学原料和化学制品制造业,0,0,0,,36.928850,118.007820
1427716,新化县鑫鑫矿业有限公司,,0,有色金属矿采选业,0,0,0,,27.768639,111.185920
186871,中海石油炼化有限责任公司惠州炼化分公司,,0,原油加工及石油制品制造,14800,1,0,,22.740030,114.569375
183849,唐河县宏达有限公司,,0,造纸,0,0,0,,32.682062,112.825672
248624,富蕴县恒盛铍业有限责任公司,2018,2,有色金属冶炼和压延加工业,0,0,0,,46.759765,89.665485
176087,扶绥县渌井铅锌矿,,0,有色金属矿采选业,25072,0,0,,22.100000,107.640000
652716,湖南谊诚化工有限责任公司,,0,其他专用化学产品制造,0,0,0,,29.227127,111.990229
1311744,兴安县兴银矿业开发有限责任公司（龙塘铅锌矿）,,0,采矿业,0,0,0,,26.036330,110.494561
1416914,湖南利洁生物集团股份有限公司,2017,1,生物药品制品制造,0,0,0,,28.274999,112.581892
243009,云南正晓环保投资有限公司,2018,9,危险废物治理,0,0,0,,25.307199,102.468190
990686,尤溪县齐翔矿业有限公司,,0,金属废料和碎屑加工处理,0,0,0,,26.342706,118.366634
3457342,中国电子科技集团公司第九研究所,2016,1,计算机、通信和其他电子设备制造业,0,0,0,,31.466596,104.640000
412922,四川省协鑫硅业科技有限公司,2018,2,其他非金属矿物制品制造,42678,0,0,,31.559719,103.230585
2544529,泉州中泰锌业有限公司,,0,其他金属工具制造,0,0,0,,24.875340,118.756880
1339031,东营联合石化有限责任公司,2016,1,石油、煤炭及其他燃料加工业,46021,1,0,,38.100790,118.896190
118074,天津合佳威立雅环境服务有限公司,,0,危险废物治理,30035,1,0,,38.955058,117.347597
129398,徐州华裕煤气有限公司,2018,26,燃气生产和供应业,20899,0,0,,34.266060,117.023840
186752,中国石油大港油田第六采油厂,,0,石油和天然气开采业,14672,1,0,,38.449673,117.297396
3450717,益阳市大通湖东洞庭植物开发有限公司,,0,,0,0,0,,29.185387,112.637472
226835,河北圣雪大成唐山制药有限责任公司,2015,1,化学试剂和助剂制造,4097,0,0,,39.835310,118.185900
117142,嘉兴市金乐染织有限公司,2018,20,棉印染精加工,5833,1,0,,30.862240,120.717650
3451747,山西介休三盛煤化有限公司,,0,石油、煤炭及其他燃料加工业,0,0,0,,37.079000,111.994387
55067,四川蓉兴化工有限责任公司,2009,1,无机盐制造,10952,1,0,,30.245967,103.794879
11662242,岳阳富安矿业有限公司,2018,11,有色金属矿采选业,17720,0,0,,29.395113,113.165362
179908,昆明市东川金水矿业有限责任公司选厂（二选厂）,,0,有色金属矿采选业,0,0,0,,26.260648,102.963340
3450260,阿拉山口中瑞恒工贸有限公司,,0,,0,0,0,,45.144348,82.561383
227758,舟山市纳海固体废物集中处置有限公司,,0,危险废物治理,20269,1,0,,30.125851,121.968990
283925,浙江红狮环保科技有限公司,,0,,29298,0,0,,29.152627,119.545400
3424038,建滔（衡阳）实业有限公司,2016,1,其他基础化学原料制造,68476,0,0,,26.906320,112.585186
3451735,阳城县佳兴城市生活垃圾处理有限公司,,0,非金属废料和碎屑加工处理,0,0,0,,35.451390,112.439822
86030,中国石油天然气股份有限公司大港石化分公司,2017,1,原油加工及石油制品制造,14722,1,0,,38.725000,117.512000
86679,浙江弘安纸业有限公司,2016,5,机制纸及纸板制造,14236,1,0,,30.973080,120.965530
118069,上海市固体废物处置有限公司,2014,4,环境治理业,30097,1,0,,31.267752,121.359914
3405573,海丰县永怡电子厂,,0,计算机、通信和其他电子设备制造业,0,0,0,,22.994249,115.347060
326810,湖北蕲春鑫丰废旧家电拆解有限公司,,0,金属废料和碎屑加工处理,0,0,0,,30.179698,115.414348
178630,淮北宇能环保能源有限公司,2017,9,垃圾焚烧发电,5369,1,0,,33.985627,116.876807
3450791,永顺县猛洞河垃圾处理有限责任公司,,0,环境治理业,0,0,0,,28.999498,109.852159
11095961,平武县双凤选矿有限公司,2015,1,有色金属矿采选业,69807,0,0,,32.036822,104.793003
3449765,沁源县兴茂煤化工限公司,,0,石油、煤炭及其他燃料加工业,0,0,0,,36.751238,112.256183
301313,涟水县依顺环保有限公司,2018,1,基础化学原料制造,0,0,0,,33.782168,119.235351
303924,青田众鑫污水处理有限公司,2017,1,污水处理及其再生利用,42315,0,0,,28.154207,120.387686
525868,乌海市华信煤焦化有限公司,2018,20,煤制品制造,43732,1,0,,39.862270,106.887950
74694,中国石油股份有限公司广州分公司,,0,石油、煤炭及其他燃料加工业,0,0,0,,23.107963,113.470203
653459,西藏藏药集团股份有限公司,,0,医药制造业,0,0,0,,29.673618,91.124011
712589,辽宁万华企业集团有限公司,,0,有色金属矿采选业,0,0,0,,41.753114,120.220142
1412535,梁山德润能源有限公司,,0,原油加工及石油制品制造,0,0,0,,35.696900,116.182670
3455036,杜尔伯特龙虎泡油田有限公司,,0,石油和天然气开采业,0,0,0,,46.866585,124.446706
78682,阜新新民金矿,,0,贵金属冶炼,0,0,0,,41.882719,121.760857
11659152,宝泰隆新材料股份有限公司,2015,2,炼焦,23906,0,0,,45.822581,130.902895
131644,湖南特力液压有限公司,2015,1,其他通用零部件制造,0,0,0,,29.111530,111.611490
181265,内蒙古红旗化工有限责任公司,,0,化学原料和化学制品制造业,0,0,0,,39.912383,111.679939
127680,山东新龙集团有限公司,2019,11,日用化工专用设备制造,18524,1,0,,37.026080,118.759330
159506,华润电力（菏泽）有限公司,2019,11,火力发电,5176,1,0,,35.252979,115.697236
227392,苏州星火环境净化股份有限公司,2016,1,废弃资源综合利用业,26211,1,0,,31.292917,120.564038
277715,安徽泰格维生素实业有限公司,2017,3,其他专用化学产品制造,65090,0,0,,33.237110,117.343418
1481323,漳浦县兴隆拉丝厂,,0,金属丝绳及其制品制造,53763,0,0,,24.086132,117.671411
3454161,将乐县建隆矿业有,,0,采矿业,0,0,0,,26.852068,117.450447
2377,常州西源污水处理有限公司,2018,7,环境卫生管理,993,1,0,,31.957970,119.814904
11095866,冕宁县茂源稀土新材料有限公司,2018,1,采矿业,8268,0,0,,28.531056,102.149142
11101562,上饶市致远环保科技有限公司,,0,金属制品业,52894,0,0,,28.671340,118.208870
185465,延长油田股份有限公司杏子川采油厂,2018,4,石油和天然气开采业,0,0,0,,36.875396,109.319069
227415,唐山大通金属制品有限公司,2019,1,金属结构制造,42432,0,0,,39.670477,118.270081
227486,武宣瑞祥实业有限责任公司,,0,有色金属矿采选业,25058,0,0,,23.250000,109.270000
227511,厦门通士达照明有限公司,,0,照明灯具制造,16952,0,0,,24.520390,118.021330
227568,修水湘赣有色金属有限公司,2017,1,有色金属冶炼和压延加工业,23658,1,0,,29.146159,114.704292
227646,永州福嘉有色金属有限公司,,0,金属制品业,17800,0,0,,25.647150,111.961600
227855,大连长伟钢结构热镀锌有限公司,2013,1,金属结构制造,16580,0,0,,39.000087,121.454870
227970,广西桂华成有限责任公司,,0,有色金属矿采选业,24995,0,0,,24.330640,111.364450
227997,贵溪市三元冶炼化工有限责任公司,,0,其他未列明制造业,23673,0,0,,28.280312,117.203132
228060,河南省利源钴业有限公司,,0,有机化学原料制造,69672,0,0,,33.965222,113.180604
228239,靖江市天邦玻管有限公司,2018,3,电光源制造,20970,0,0,,32.009020,120.243290
228487,三星(中国)半导体有限公司,,0,智能车载设备制造,65441,1,0,,34.101886,108.797026
228501,山东金创金银冶炼有限公司,2016,1,铜冶炼,51224,0,0,,37.589170,121.051000
228514,山西嘉洁再生资源利用有限公司,,0,金属废料和碎屑加工处理,27002,0,0,,36.140278,113.070833
228564,盛隆资源再生(无锡)有限公司,2018,1,废弃资源综合利用业,48060,0,0,,31.528854,120.460350
228813,延长油田公司横山采油厂,,0,石油和天然气开采业,65382,0,0,,37.574925,107.596400
231857,江西理文化工有限公司,2018,3,其他合成材料制造,40265,1,0,,29.811880,115.616560
232606,连云港埃森化学有限公司,2018,12,农药制造,57204,0,0,,34.397680,119.760150
243556,河南超威正效电源有限公司,2015,1,其他电池制造,59912,0,0,,35.075080,112.900500
243724,宁夏精英鲁西化肥有限公司,2017,7,肥料制造,32953,0,0,,38.476890,106.093390
244108,广西蓝星大华化工有限责任公司,2018,6,涂料制造,29890,0,0,,23.838060,106.662010
246689,江苏进合汽车配件有限公司,2015,1,汽车车身、挂车制造,57289,0,0,,33.379230,120.266910
249290,江苏剑牌农化股份有限公司滨海分公司,2014,1,农药制造,57313,1,0,,34.352347,120.079488
255446,江苏舒瑞毛绒制品有限公司,2017,3,机织服装制造,33080,0,0,,33.468610,119.911494
270419,昆山三星电机有限公司,,0,智能消费设备制造,48099,1,0,,31.365570,121.015250
281232,东北制药集团股份有限公司(张士),,0,医药制造业,16674,1,0,,41.795616,123.432419
281244,陕西延长石油（集团）有限责任公司延安石油化工厂,2016,1,原油加工及石油制品制造,16739,1,0,,35.613889,109.349444
281318,汪清县华鑫矿业有限公司,,0,有色金属矿采选业,17106,0,0,,43.173599,129.682850
281553,天方药业有限公司,2015,1,化学药品制剂制造,18082,1,0,,32.969348,114.050978
283484,营口忠旺铝业有限公司,,0,金属制品业,27659,1,0,,40.570220,122.280170
283555,琼海市生活垃圾焚烧厂,2018,1,垃圾焚烧发电,27777,1,0,,19.308045,110.457886
283618,海南金昌金矿有限公司,,0,贵金属冶炼,27861,0,0,,19.152243,108.950822
284257,山西兆丰铝电有限责任公司电解铝分公司,2018,5,煤炭开采和洗选业,29931,1,0,,37.986667,113.324167
287296,福清市融城幸福硫酸铜厂,2018,4,,52938,0,0,,25.743100,119.390311
292956,张家口动力机械有限公司,,0,机械零部件加工,49227,0,0,,40.839055,114.879041
294201,常熟市异型钢管有限公司,2019,2,金属制品业,48076,0,0,,31.672196,120.899220
294202,泰光化纤（常熟）有限公司,2019,8,纤维素纤维原料及纤维制造,48075,1,0,,31.719131,120.845131
294204,张家港东亚迪爱生化学有限公司,2019,1,合成材料制造,48082,0,0,,31.978283,120.473035
294865,铁岭北方糠醛集团榆树新庄有限公司,,0,化学原料和化学制品制造业,33693,0,0,,45.047710,126.744389
299971,扬州日兴生物科技股份有限公司,2016,2,基础化学原料制造,48141,0,0,,32.756037,119.466381
301943,合肥阿雷斯提汽车配件有限公司,,0,其他金属加工机械制造,30190,0,0,,31.741310,117.195890
302024,安庆市鑫祥瑞化工有限公司,2015,1,基础化学原料制造,30316,0,0,,30.534864,117.003475
302106,宣城市宏达锌业有限公司,,0,金属废料和碎屑加工处理,30430,0,0,,31.012337,118.706174
303515,四川青博木业有限公司,,0,纤维板制造,36600,0,0,,32.596541,105.235850
303604,嘉善县大舜强宏表面处理有限公司,2018,7,金属表面处理及热处理加工,36608,1,0,,30.988752,120.883518
1102490,潍坊龙达锌业有限公司,2019,3,化学试剂和助剂制造,0,0,0,,36.859146,119.167757
304657,龙岩市鑫鑫再生资源利用有限公司,,0,金属废料和碎屑加工处理,53824,0,0,,25.488017,116.726281
305776,庆阳丰泰环保有限责任公司,2018,3,,37606,0,0,,36.800349,107.156994
306280,欧励友工程炭（青岛）有限公司,2018,4,石墨及碳素制品制造,61873,1,0,,36.300395,120.019775
306410,成都五联化工公司,2017,4,化学原料和化学制品制造业,37213,0,0,,30.743424,103.538382
310065,广安能投华西环保发电有限公司,2016,1,垃圾焚烧发电,42492,0,0,,30.379305,106.461511
315170,安徽楚江高新电材有限公司,,0,电线、电缆制造,64931,0,0,,31.261061,117.945384
332573,乐山和邦农业科技有限公司,2016,1,,42641,0,0,,29.443472,103.806364
334884,达州励志环保科技有限公司,2016,2,废弃资源综合利用业,38990,0,0,,31.195917,107.514633
336266,湖北共同生物科技有限公司,2018,3,化学原料和化学制品制造业,66846,1,0,,32.509290,111.460450
338898,九江市华生三废综合利用厂,2016,1,废弃资源综合利用业,52672,0,0,,29.483820,116.045705
3388208,株洲安特新材料科技有限公司,2018,1,,0,0,0,,26.992900,113.302620
465904,山西省襄汾县宏源煤焦化工有限公司,2019,13,煤炭加工,69927,1,0,,35.929453,111.292507
485967,将乐县鑫源五金加工厂,2016,1,金属制品业,53877,0,0,,25.972671,117.361545
1422141,吉林省通用机械（集团）有限责任公司,2018,3,其他未列明制造业,0,0,0,,43.835320,125.421160
628648,巨江电源科技有限公司,2016,1,电池制造,73869,1,0,,29.098321,119.319393
651557,湖北省八峰药化股份有限公司,2018,1,化学药品原料药制造,42929,1,0,,30.647986,114.250246
695604,上海联大海绵有限公司,,0,其他合成纤维制造,70639,0,0,,30.953874,121.143172
292953,澳皮王（宣化）皮业有限公司,,0,皮革鞣制加工,0,0,0,,40.630154,115.067970
711670,江苏托球农化股份有限公司,2017,3,农药制造,57332,1,0,,34.293887,120.058520
899270,信和新材料股份有限公司,2014,2,第三产业,53702,0,0,,24.962432,118.652743
989488,包头市聚峰稀土有限责任公司,2018,2,稀土金属冶炼,44143,0,0,,41.662527,110.195348
1112218,山东鸿达电镀产业园有限公司,2018,3,其他未列明制造业,62882,0,0,,36.417678,115.738644
1118130,浙江深梦皮革科技有限公司,,0,纺织服装、服饰业,39902,1,0,,30.531668,120.733218
1121993,奥科宁克（秦皇岛）铝业有限公司,,0,其他未列明金属制品制造,40025,0,0,,39.965920,119.631222
1124766,四川新开元制药有限公司,,0,生物药品制品制造,40173,1,0,,30.362200,104.543000
1316872,神华新疆化工有限公司,2017,1,煤制品制造,43449,1,0,,44.120152,87.668418
1338211,永嘉县东瓯污水处理有限公司,2016,3,水污染治理,21848,1,0,,28.036242,120.611946
1419449,朝阳县北方兄弟资源有限公司,2017,1,黑色金属冶炼和压延加工业,46366,0,0,,41.332798,120.582589
1422354,德阳镁金铁塔构件有限公司,2017,1,金属结构制造,45520,0,0,,31.064410,104.650490
1436008,山东多友科技有限公司,2018,4,轻质建筑材料制造,61861,0,0,,35.449477,116.016670
1447511,东方希望晋中铝业有限公司,2018,5,有色金属冶炼和压延加工业,72787,0,0,,36.736630,111.772050
1451648,山东华顺环保科技股份有限公司,,0,金属制品业,68258,0,0,,37.377129,120.313702
2352557,苏州宝化炭黑有限公司,,0,石墨及碳素制品制造,33335,1,0,,31.408770,120.479050
2609212,江苏辉丰生物农业股份有限公司,2018,19,农药制造,57385,1,0,,33.169730,120.727360
3450158,东方傲立石化有限公司,,0,石油、煤炭及其他燃料加工业,69841,0,0,,19.093949,108.656552
3451127,甘肃圣言环保节能技术开发公司,,0,,67766,0,0,,35.740028,107.632797
3592458,PPG涂料（天津）有限公司,,0,化学原料和化学制品制造业,57789,0,0,,39.057800,117.692500
3643768,中化吉林长山化工有限公司,2018,12,化学原料和化学制品制造业,14822,1,0,,45.314692,124.486091
11052140,德州兴豪皮业有限公司,,0,皮革、毛皮、羽毛及其制品和制鞋业,1681,1,0,,37.367200,116.538810
11095714,余江县昌盛化工有限公司,,0,其他基础化学原料制造,52725,0,0,,28.454241,116.956934
267,安徽旷能电池电源有限公司,2014,4,其他金属制日用品制造,17216,0,0,,32.286111,118.618889
440053,盘锦浩业化工有限公司,2017,4,化学原料和化学制品制造业,0,0,0,,41.346250,122.173394
798,蚌埠市天星树脂有限责任公司,2017,5,初级形态塑料及合成树脂制造,30242,0,0,,33.329460,117.340300
12019,会昌金龙锡业有限公司,2016,2,有色金属矿采选业,6420,1,0,,25.050833,115.663888
4008,德龙钢铁有限公司,2017,11,炼钢,1645,1,0,,37.080430,114.392140
4802,都兰县金辉矿业有限公司,2010,1,贵金属冶炼,30885,0,0,,36.272980,95.878410
519084,东营国安化工有限公司,2018,6,原油加工及石油制品制造,0,0,0,,37.689175,118.509933
11137511,安新县硕兴有色金属熔炼有限公司,2011,1,金属制品业,229,0,0,,38.881130,115.902970
338153,榆林市九鼎环保有限公司,2017,2,环境卫生管理,0,0,0,,38.265412,109.910776
10049,河北金源化工股份有限公司,2018,8,复混肥料制造,4049,0,0,,38.171854,114.578185
15597,晋江金泉环保有限公司,2017,3,,6737,1,0,,24.599490,118.676120
16291,酒钢集团榆中钢铁有限责任公司,2019,32,黑色金属冶炼和压延加工业,6847,1,0,,36.035926,104.041541
11175690,衡山县金贝尔化工有限公司,2016,6,化学原料和化学制品制造业,17474,0,0,,27.248809,112.887370
11185682,内蒙古乌海市化工有限公司,2017,7,化学原料和化学制品制造业,8422,0,0,,39.397221,106.914960
11195220,马鞍山市健鼎化工有限公司,2016,1,其他专用化学产品制造,50008,0,0,,31.755668,118.511509
11196522,广西桂平安顺选矿有限公司,,0,其他未列明制造业,24956,0,0,,23.313842,109.806401
22942,青海际华江源实业有限公司,2016,4,其他基础化学原料制造,31014,1,0,,36.544930,101.495260
11199705,山东斯道拉恩索华泰纸业有限公司,2018,4,造纸和纸制品业,23393,0,0,,36.995097,118.495903
24244,山西潞安环能五阳弘峰焦化有限公司,2019,10,煤炭加工,27121,1,0,,36.640556,113.036111
24302,山西天星煤气化有限公司,2018,6,煤炭开采和洗选业,30602,0,0,,36.857040,111.836100
24315,山西翔宇化工有限公司,2018,5,其他基础化学原料制造,26881,0,0,,35.127450,110.761650
1481922,汝南立晟镀业有限公司,2018,2,金属表面处理及热处理加工,0,0,0,,32.971946,114.334196
6396,佛山市盈进染织有限公司,2018,16,棉印染精加工,0,0,0,,22.879572,112.858420
29154,四川岷江电解锰厂,2019,2,有色金属冶炼和压延加工业,58208,0,0,,32.569528,104.125432
32244,铜陵县仙人冲矿业有限责任公司,2009,3,有色金属矿采选业,19891,0,0,,30.929167,118.060000
1463291,河北汉唐宏远环保科技有限公司,2018,3,,0,0,0,,37.613815,114.969307
32902,温州永旭金属有限公司,2018,6,金属表面处理及热处理加工,25757,1,0,,27.853590,120.811460
37326,扬州健松镀锌有限公司,2018,11,金属表面处理及热处理加工,48140,0,0,,32.647896,119.340399
39142,玉环县江南电镀厂,2017,9,金属表面处理及热处理加工,13689,1,0,,28.112755,121.228860
39720,云南省陆良化工实业有限公司,2018,4,无机盐制造,13887,1,0,,25.019489,103.652832
40596,浙江华德利纺织印染有限公司,,0,纺织业,14248,1,0,,30.396485,120.361080
11637648,江西省修水赣北钨业有限公司,2016,5,钨钼冶炼,6433,1,0,,29.034972,114.616864
41047,浙江省遂昌金矿有限公司,2018,1,有色金属矿采选业,29607,1,0,,28.612288,119.427428
40398,肇州县中大化工有限公司,2010,2,基础化学原料制造,0,0,0,,45.744764,125.555089
41199,浙江医药股份有限公司新昌制药厂,2011,2,化学药品原料药制造,14382,1,0,,29.500845,120.918650
11637795,海南矿业股份有限公司,2016,5,采矿业,34197,1,0,,19.245790,109.051760
11637818,四川金哥针织有限公司,2018,5,针织服装制造,37998,0,0,,30.896405,104.159521
43680,广西柳州钢铁（集团）公司,2018,27,钢压延加工,18177,1,0,,24.388349,109.389024
44360,河南亚新钢铁集团有限公司,2019,17,黑色金属冶炼和压延加工业,4319,1,0,,35.880640,114.334333
11639188,溆浦江龙锰业有限责任公司,2018,4,煤制品制造,13131,0,0,,27.847633,110.377865
11653261,中国石化湛江东兴石油化工有限责任公司,2017,5,石油、煤炭及其他燃料加工业,14670,1,0,,21.164230,110.385135
75800,东莞新能源电子科技有限公司,,0,其他电子设备制造,0,0,0,,22.986916,113.712265
78676,阳城华泰电力杆塔有限公司,,0,金属结构制造,0,0,0,,35.498694,112.362363
11662233,湖南南岭化工集团有限责任公司,2016,5,炸药、火工及焰火产品制造,4832,0,0,,26.005440,111.658170
67692,海城诚信有色金属有限公司,2016,2,黑色金属冶炼和压延加工业,16587,1,0,,40.844961,122.724695
68125,湖北华丽染料工业有限公司,,0,工艺美术颜料制造,4629,1,0,,29.745790,112.452000
69951,宜昌长江铝业有限责任公司,2014,4,铝冶炼,13404,0,0,,30.667740,111.176870
71515,中海壳牌石油化工有限公司,,0,原油加工及石油制品制造,14796,1,0,,22.749756,114.608109
72126,南京大吉铁塔制造有限公司,2018,5,采矿、冶金、建筑专用设备制造,48018,0,0,,31.973439,118.562328
98703,澧县华峰锌业有限公司,2017,3,铅锌冶炼,0,0,0,,29.765460,111.542130
73007,盘锦北方沥青股份有限公司,2018,7,原油加工及石油制品制造,8935,1,0,,41.162730,122.114500
11669397,北京燕山集联石油化工有限公司,2018,7,化学原料和化学制品制造业,39967,0,0,,39.721767,116.036984
73462,东岭锌业股份有限公司,2018,12,有色金属冶炼和压延加工业,1767,1,0,,33.938711,106.531933
11669413,北京通美晶体技术有限公司,2019,6,智能车载设备制造,26244,1,0,,39.858333,116.731981
111817,山东中矿集团有限公司,,0,有色金属矿采选业,0,0,0,,37.451550,120.295440
77554,贵港市金地矿业有限责任公司,,0,贵金属冶炼,29885,0,0,,23.110310,109.581240
117074,黑龙江盛安民用爆破器材有限责任公司双鸭山分公司,,0,炸药、火工及焰火产品制造,0,0,0,,46.593623,131.373233
78468,兰州金川新材料科技股份有限公司,2010,1,,35008,0,0,,38.498296,102.187087
78814,山东新时代药业有限公司,2015,1,化学原料和化学制品制造业,9978,1,0,,35.272441,118.034386
82522,河南秦岭冶炼股份有限公司,2018,4,其他贵金属冶炼,31406,0,0,,34.536002,110.401998
84720,陕西兴化集团有限责任公司,2018,11,其他未列明制造业,10148,1,0,,34.278902,108.509171
126532,邵阳县奇鑫金属科技有限公司,2013,1,金属废料和碎屑加工处理,0,0,0,,27.192227,111.275378
88092,新能能源有限公司,2015,2,基础化学原料制造,12884,1,0,,40.320556,110.115968
88409,唐山三友集团东光浆粕有限责任公司,2018,5,非木竹浆制造,11465,1,0,,37.905807,116.540128
88417,太原迎宪焦化集团有限公司,2017,5,煤炭开采和洗选业,41321,0,0,,37.611103,112.375500
139302,山东新泰联合化工有限公司,2014,1,基础化学原料制造,0,0,0,,35.852866,117.310151
142026,长沙市比亚迪汽车有限公司,,0,汽车车身、挂车制造,0,0,0,,28.078970,113.035040
90346,江苏恩华药业股份有限公司,2016,1,化学药品原料药制造,41325,0,0,,34.401150,117.423310
92392,上海瑞尔实业有限公司,2017,9,其他未列明金属制品制造,10271,1,0,,31.315403,121.239030
93472,安徽长青电子机械（集团）有限公司,,0,电子真空器件制造,17621,0,0,,32.694444,118.956944
173535,金堆城钼业汝阳有限责任公司,2018,2,有色金属矿采选业,0,0,0,,33.959980,112.374300
95590,浙江美能电气有限公司,2011,1,其他电池制造,20225,1,0,,30.786850,119.640532
97371,山东东岳能源交口肥美铝业有限责任公司,2019,19,有色金属冶炼和压延加工业,18354,1,0,,36.896164,111.478381
11674451,玛曲县黄金冶炼厂,2016,1,金冶炼,8065,0,0,,33.989910,102.071784
100006,甘肃省临洮铝业有限责任公司,2016,1,铝冶炼,2586,1,0,,35.245279,103.850566
100147,荆门市格林美新材料有限公司,,0,铸造及其他金属制品制造,23550,1,0,,30.945032,112.201083
100339,本溪北营钢铁（集团）股份有限公司焦化厂,2014,1,钢压延加工,600,1,0,,41.235027,123.638867
101730,广西金创汽车零部件制造有限公司,2016,2,汽车车身、挂车制造,24960,0,0,,22.398262,110.262842
103222,贵州金兴黄金矿业有限责任公司,2019,7,贵金属冶炼,27915,0,0,,25.572349,105.474406
107955,江苏海伦石化有限公司,2018,7,化学原料和化学制品制造业,21034,1,0,,31.929160,120.102770
108591,廊坊莱索思环境技术有限公司,2016,5,固体废物治理,7175,1,0,,39.297943,116.495651
607331,新乡市联昇皮革有限公司,2019,2,皮革鞣制加工,0,0,0,,35.062577,114.414585
112028,灵宝金源晨光有色矿冶有限公司,2015,2,有色金属矿采选业,7548,0,0,,34.501059,110.896620
112048,湖北兴发化工集团股份有限公司（白沙河化工厂）,,0,基础化学原料制造,23870,0,0,,30.698005,111.284580
112156,内蒙古霍煤鸿骏铝电有限责任公司,2017,6,铸造及其他金属制品制造,8374,1,0,,45.388580,119.537300
11681583,陕西有色榆林新材料有限责任公司,2019,36,烟煤和无烟煤开采洗选,16744,1,0,,38.524159,109.881570
113709,陕西渭河煤化工集团有限责任公司,2019,30,石油、煤炭及其他燃料加工业,10142,1,0,,34.499585,109.415308
114594,杭州立佳环境服务有限公司,2017,2,其他污染治理,21731,1,0,,30.396879,120.223072
115139,青县华亿电子有限公司,2019,6,其他未列明金属制品制造,24206,0,0,,38.475610,116.881250
196401,张家川回族自治县鑫达矿业开发有限公司,,0,有色金属矿采选业,0,0,0,,34.946396,106.342545
11686580,山东赫达股份公司,2018,5,其他原动设备制造,30945,1,0,,36.672974,117.717082
119463,侯马北铜铜业有限公司,2017,1,铜冶炼,18428,0,0,,35.582100,111.301710
119472,淄博明泰电器科技有限公司,2011,1,其他电池制造,23326,0,0,,36.598499,117.984656
214400,石嘴山市瑞新化工有限公司,2014,1,专项化学用品制造,0,0,0,,39.268319,106.723980
119897,广西德天化工循环股份有限公司,2018,6,涂料、油墨、颜料及类似产品制造,25616,1,0,,22.568225,108.232541
216080,邵武市永飞化工有限公司,2016,3,化学原料和化学制品制造业,0,0,0,,27.296580,117.558570
120528,温州鑫鹏再生资源利用有限公司,2017,8,废弃资源综合利用业,24744,0,0,,27.960178,120.670020
120899,浙江侨信皮革有限公司,2018,3,其他皮革制品制造,25787,0,0,,27.636820,120.331009
122042,安徽鑫皖制革有限公司,2019,3,其他毛皮制品加工,20555,0,0,,32.619250,115.585510
123125,重庆江特表面处理有限责任公司,2018,23,金属制品业,14997,0,0,,29.403091,105.643223
227722,中国人民解放军61699部队危险废物处理中心,,0,环境治理业,20143,0,0,,31.060869,111.640508
124543,亚东石化（上海）有限公司,2015,1,有机化学原料制造,13151,1,0,,30.846694,121.550444
124790,松桃三和锰业集团鑫旺有限公司,2018,3,黑色金属矿采选业,11129,0,0,,28.373412,109.271683
11688739,临泽宏鑫矿产实业有限公司,2018,10,有色金属矿采选业,7532,1,0,,39.357130,100.113410
235591,桃源牯牛山金属冶炼有限责任公司,2016,2,有色金属冶炼和压延加工业,0,0,0,,28.749443,111.209746
127264,山东圣奥化学科技有限公司,2018,4,化学原料和化学制品制造业,9853,1,0,,34.843969,115.551281
241541,通化农药化工股份有限公司,2015,1,农药制造,0,0,0,,41.763010,125.961710
244207,河北迁安正大通用钢管有限公司,2016,2,金属制品业,0,0,0,,39.934709,118.671441
247326,湖南省邑金投资有限公司,2016,2,金融业,0,0,0,,25.634578,113.906565
248622,阿勒泰华通矿业有限公司,2015,1,有色金属矿采选业,0,0,0,,47.729659,88.436116
11692229,泰兴市三峰环保能源有限公司,2017,10,火力发电,11372,1,0,,32.130723,119.927369
1038288,清水河县天泰化工有限责任公司,2018,1,有色金属合金制造,0,0,0,,39.912610,111.721940
11695298,河北诚信集团有限公司,,0,基础化学原料制造,3993,1,0,,37.765690,114.566460
130483,武汉深能环保新沟垃圾发电有限公司,,0,垃圾焚烧发电,23597,1,0,,30.685450,113.966100
133509,旺苍攀成钢焦化有限公司,2016,3,煤炭加工,11931,0,0,,32.207320,106.193950
11695857,杭州富阳飞隆环保固废利用有限公司,2014,2,有色金属冶炼和压延加工业,21804,0,0,,29.891379,119.887270
134454,赤峰中色锌业有限公司,,0,铅锌冶炼,1182,1,0,,42.292043,119.029035
272527,福建省双旗山矿业有限责任公司（黄金冶炼厂）,2016,1,其他采矿业,0,0,0,,25.493891,118.232353
141708,嘉施利（宜城）化肥有限公司,2013,2,肥料制造,20126,0,0,,31.577676,112.209739
11696358,唐山市东方炼焦制气有限公司,2019,16,煤炭加工,31046,1,0,,39.493186,118.709933
148193,江西省江铜-瓮福化工有限责任公司,,0,化学原料和化学制品制造业,6421,1,0,,28.183333,117.750000
157305,陕西富平水泥有限公司,2019,4,水泥制造,10088,1,0,,34.822870,109.039910
286577,滨州圣丰工贸有限公司,2016,1,通用设备制造业,0,0,0,,37.464655,117.561059
164406,浙江卫星能源有限公司,2016,2,有机化学原料制造,61152,0,0,,30.677474,121.241870
293487,邢台群星再生物资回收利用有限公司,,0,危险废物治理,0,0,0,,37.524870,114.987020
293811,乌鲁木齐市东海天泰石油化工有限公司,,0,石油、煤炭及其他燃料加工业,0,0,0,,44.032265,87.787933
11697738,重庆鸿腾科技有限公司,,0,计算机、通信和其他电子设备制造业,44356,0,0,,29.508778,106.453365
297480,黑河市净城医疗废物处理厂,2017,3,废弃资源综合利用业,0,0,0,,49.893849,127.388658
174235,安徽晋煤中能化工股份有限公司,2018,2,氮肥制造,134,1,0,,33.060990,115.288610
297625,武汉博旺兴源环保科技股份有限公司,,0,,0,0,0,,30.659145,114.465830
300073,河北和兆益祥再生资源利用有限公司,,0,金属废料和碎屑加工处理,0,0,0,,36.337130,115.001570
11701172,无棣鑫岳化工集团有限公司,2018,15,化学原料和化学制品制造业,12191,1,0,,37.735980,117.608610
301595,扬州强凌有限公司,,0,照明器具制造,0,0,0,,32.307670,119.388140
175410,大田县爱鑫矿业有限公司,2017,3,有色金属矿采选业,15864,0,0,,26.005884,117.801037
749973,广东坚士制锁有限公司,2019,2,其他金属制日用品制造,0,0,0,,22.190560,113.142320
11701382,济南市云水腾跃环保科技有限公司,2018,2,,50965,0,0,,37.219350,117.381592
176400,甘肃鑫脉黄金有限公司,2016,1,有色金属矿采选业,2600,0,0,,34.020277,102.207222
311749,南京中电熊猫平板显示科技有限公司,,0,,58382,0,0,,32.133660,118.995050
11707386,宁波安基管业有限公司,2012,5,钢压延加工,24835,0,0,,30.318100,121.270210
307694,莱芜海纳医疗废物处理有限公司,,0,废弃资源综合利用业,0,0,0,,36.153305,117.520982
176889,广西忻城县宏图锰业有限责任公司,2013,1,黑色金属冶炼和压延加工业,25051,0,0,,23.950000,108.640000
177233,哈尔滨东安发动机（集团）有限公司,,0,非公路休闲车及零配件制造,3637,1,0,,45.592146,126.666896
334563,鄯善久隆源技术开发服务有限公司,,0,,0,0,0,,43.083774,90.495737
334575,巴州新瑞环保科技有限公司,,0,,0,0,0,,41.706293,86.228953
334631,全南县官山钨业有限责任公司,2016,1,有色金属矿采选业,0,0,0,,24.907421,114.536160
335063,雅安七鑫科技有限责任公司,2016,1,有色金属冶炼和压延加工业,0,0,0,,29.998083,103.066764
335121,喜德宏源锌业有限责任公司,2017,2,有色金属冶炼和压延加工业,0,0,0,,27.397219,102.173790
177824,赫章县华丰锌业有限公司,,0,铅锌冶炼,4357,0,0,,27.086667,104.691111
178736,会东县龙宇矿业开发有限责任公司,,0,有色金属矿采选业,5463,0,0,,27.227436,102.790594
178738,会东县新光铜厂,,0,有色金属矿采选业,5464,0,0,,26.438484,102.515705
178748,会理县宏源矿业有限责任公司,,0,有色金属矿采选业,5476,0,0,,27.082877,102.399450
11712390,浙江德创企业管理有限公司,2016,9,皮革制品制造,25836,1,0,,30.737760,120.889360
492632,福建省劲德电源科技有限公司,2016,1,电池制造,0,0,0,,25.391970,118.949260
179536,锦州钒业有限责任公司,2016,1,黑色金属冶炼和压延加工业,6715,0,0,,41.058704,120.988228
525480,广州恒和精细化工厂,,0,合成材料制造,0,0,0,,23.256718,113.334440
180329,临武县南方矿业有限责任公司,2013,1,有色金属矿采选业,7483,1,0,,25.269750,112.562670
532076,浙江中山化工集团股份有限公司,2016,1,有机化学原料制造,0,0,0,,31.014670,119.925550
540139,瑞声精密电子沭阳有限公司,,0,电子元件及电子专用材料制造,0,0,0,,34.113712,118.855209
583023,台州市中豪机械有限公司,,0,有色金属冶炼和压延加工业,0,0,0,,28.550790,121.455690
584424,四川清山绿水实业发展有限公司,,0,化学药品原料药制造,0,0,0,,30.278152,106.266635
590200,长春市三化实业有限责任公司,,0,涂料制造,0,0,0,,43.762204,125.172453
610938,万载县桃源金矿有限责任公司,,0,有色金属矿采选业,0,0,0,,28.959102,115.270065
180885,洛阳坤宇矿业有限公司上宫金矿,,0,有色金属矿采选业,7999,0,0,,34.833333,112.083333
626200,青州市鲁光润滑油有限公司,,0,原油加工及石油制品制造,0,0,0,,36.623830,118.742780
628844,凯米拉化学品（兖州）有限公司,2016,1,化学试剂和助剂制造,0,0,0,,35.591930,116.807120
633381,峡江县恒通助剂有限公司,,0,化学试剂和助剂制造,0,0,0,,27.548240,115.304700
635778,三河市众智创新贵金属有限公司,,0,化学试剂和助剂制造,0,0,0,,39.915033,117.022988
637596,福建中翔纳米科技有限公司,2017,3,其他未列明制造业,0,0,0,,26.263060,118.456890
642169,陕西宝润生物能源有限公司,,0,精炼石油产品制造,0,0,0,,34.950356,109.008640
659097,蒙山县对外经济合作有限公司,,0,有色金属矿采选业,0,0,0,,23.375814,110.911907
181627,宁夏钢铁（集团）有限责任公司,2016,2,炼铁,8787,0,0,,37.497097,105.088243
678787,内蒙古齐华矿业有限责任公司,,0,有色金属矿采选业,0,0,0,,40.952230,106.813300
692155,大冶市金成矿业有限责任公司,,0,黑色金属矿采选业,0,0,0,,30.127903,114.797088
704731,四川南充成发矿机制造有限公司,,0,采矿、冶金、建筑专用设备制造,0,0,0,,30.818719,106.101428
723916,江西润鹏矿业开发有限公司,,0,有色金属矿采选业,0,0,0,,26.207440,115.652037
729392,成都彩虹环保科技有限公司,,0,涤纶纤维制造,0,0,0,,30.652754,104.217896
733520,广西宜州申亚锰业有限责任公司,,0,其他常用有色金属冶炼,0,0,0,,24.492100,108.662260
751287,济南天章润滑油脂厂,,0,其他未列明制造业,0,0,0,,36.757000,117.208450
754461,中平神马（福建）科技发展有限公司,2017,1,矿山机械制造,0,0,0,,25.123720,118.850550
182160,青海西部水电有限公司,2017,2,电力生产,18714,1,0,,36.303782,102.898293
783356,中江县通济花炮厂,,0,炸药及火工产品制造,0,0,0,,31.067460,104.736600
836898,四川省青川电解锰有限责任公司,,0,黑色金属冶炼和压延加工业,0,0,0,,32.221030,105.332310
846019,衡阳市东大化工有限公司,,0,无机盐制造,0,0,0,,26.974170,112.774760
848406,湖南洪江恒光化工有限公司,,0,化学原料和化学制品制造业,0,0,0,,27.150470,110.019470
870236,无锡市华燕新电源有限公司,,0,电池制造,0,0,0,,31.579596,119.665324
870794,东宁县鑫城金矿有限责任公司,,0,有色金属矿采选业,0,0,0,,44.266320,130.799296
1328946,隆化鑫奥博矿业有限公司,2017,2,有色金属矿采选业,0,0,0,,41.318690,117.738640
918183,遂川和创金属新材料有限公司,,0,有色金属合金制造,0,0,0,,26.367766,114.569859
991250,江西省辉鹏有色金属有限公司,,0,镁冶炼,0,0,0,,27.751498,114.399982
1029810,攀枝花青杠坪矿业有限公司,,0,黑色金属矿采选业,0,0,0,,27.045670,102.135400
1108354,鸡西市宝川垃圾处理厂,2017,1,环境治理业,0,0,0,,45.267996,131.072710
182477,山东华誉集团有限公司,2019,16,医药制造业,23435,1,0,,37.156910,118.436590
3450377,陕西大睿盛通环保科技有限公司安塞分公司,2017,1,,0,0,0,,37.290759,109.140542
182553,山东尚舜化工有限公司,2018,11,化学试剂和助剂制造,23483,0,0,,34.794552,116.140547
182645,山西大土河焦化有限责任公司焦化三厂,2018,4,炼焦,42048,1,0,,37.496852,111.129509
1457478,济宁利特生物工程有限公司,2019,7,饲料加工,0,0,0,,35.528510,116.543830
1122902,福建省澳龙树脂化工有限公司,2017,1,初级形态塑料及合成树脂制造,0,0,0,,25.078276,118.847530
1199007,启东市北新无机化工有限公司,2017,3,其他专用化学产品制造,0,0,0,,31.822660,121.482020
1238236,玉环普力源铸造有限公司,2016,1,有色金属铸造,0,0,0,,28.211682,121.399800
1311073,甘肃大冶地质矿业有限责任公司大桥金矿,,0,采矿业,0,0,0,,33.735234,105.289514
183579,四川西昌合力锌业股份有限公司,2016,10,有色金属矿采选业,11027,0,0,,27.959939,102.206931
183783,台州森林造纸有限公司,2015,2,机制纸及纸板制造,11309,1,0,,28.443755,121.566446
1318390,汉源锦泰锌锗科技有限公司,,0,,0,0,0,,29.345884,102.722120
1323588,宜章县鑫联矿业有限公司,2018,1,有色金属矿采选业,0,0,0,,25.394727,112.949354
1323765,光大环保固废处置（新沂）有限公司,,0,固体废物治理,0,0,0,,34.406553,118.433346
1323772,泰州市联泰固废处置有限公司,,0,固体废物治理,0,0,0,,32.222779,119.947235
1323780,苏州宝典环境治理有限公司,2016,1,,0,0,0,,31.397135,120.514272
183980,腾冲县恒丰矿业有限责任公司,2017,3,有色金属矿采选业,24375,0,0,,25.529500,98.408070
1324415,成都丽凯手性技术有限公司大邑分公司,2016,1,,0,0,0,,30.576631,103.546673
184653,武陟万锦皮业有限公司,,0,其他毛皮制品加工,12464,1,0,,35.078600,113.440380
184947,湘乡市嘉联锌业有限公司,2017,5,铅锌冶炼,12662,1,0,,27.744636,112.471903
1335121,洛阳博华实业有限公司,,0,有色金属合金制造,0,0,0,,34.307740,112.566710
1336764,四川广旺集团机械制造有限责任公司,2016,1,,0,0,0,,32.324214,105.972279
1337115,兰州泓翼废旧电子产品拆解加工中心,,0,计算机、通信和其他电子设备制造业,0,0,0,,36.033760,103.912690
1338819,济南市鑫源物资开发利用有限公司,2014,1,非金属废料和碎屑加工处理,0,0,0,,36.795794,117.164067
1339565,仙桃市嘉友汽车零部件表面处理有限公司,,0,汽车车身、挂车制造,0,0,0,,30.371788,113.194721
185394,徐州天成氯碱有限公司,2018,6,基础化学原料制造,13100,1,0,,34.948010,116.801228
185956,玉门市昌源矿业有限公司,,0,有色金属矿采选业,13703,0,0,,39.970500,96.698800
186027,垣曲清海铜业有限公司,2016,3,有色金属冶炼和压延加工业,27177,0,0,,35.466667,111.500000
186416,张家口永盛毛皮硝染有限公司,,0,毛皮服装加工,39543,1,0,,40.112870,114.185630
186489,浙江昌达实业有限公司,,0,加工纸制造,14181,1,0,,27.608606,118.961554
1411582,许昌县城市生活垃圾处理场,,0,环境治理业,0,0,0,,34.124874,113.825403
1411992,安徽皖东树脂科技有限公司,,0,,0,0,0,,32.982320,117.567970
1417294,西安凯立新材料股份有限公司,,0,,0,0,0,,34.494050,108.984300
1417996,山东裕得金属制品有限公司,2017,3,其他未列明金属制品制造,0,0,0,,35.437293,116.630910
1418734,甘肃中色东方环保科技股份有限公司,,0,,0,0,0,,38.375386,102.082525
186774,中国石油化工股份有限公司胜利油田分公司桩西采油厂,,0,石油和天然气开采业,23392,0,0,,37.939341,118.849695
1443184,深圳市空港油料有限公司,2017,1,,0,0,0,,22.644727,113.828657
189128,江苏三木化工股份有限公司,2019,9,化学原料和化学制品制造业,21036,1,0,,31.496844,119.682520
189491,福清市发强特种油有限公司,2018,6,其他未列明制造业,53144,0,0,,25.571529,119.285314
189810,浙江广泽机电有限公司,2017,7,风动和电动工具制造,29280,0,0,,29.232600,120.744570
1455937,葫芦岛宏跃北方铜业有限责任公司,,0,铜冶炼,0,0,0,,40.727116,120.945447
191030,洞头县联欣表面处理有限公司,2016,6,金属制品业,25763,0,0,,27.853697,121.174685
191222,山东铁雄冶金科技有限公司,2018,20,煤炭开采和洗选业,23208,1,0,,36.907357,117.750776
191338,乐清市腾达废旧金属回收有限公司,2017,3,金属废料和碎屑加工处理,26224,0,0,,28.323164,121.131821
191641,建滔(河北)化工有限公司,2015,2,炼焦,5898,1,0,,37.187040,114.495030
196522,景旺电子科技（龙川）有限公司,2018,1,智能消费设备制造,16050,1,0,,24.059670,115.374931
1700618,桦甸市中辰矿业有限公司,,0,采矿业,0,0,0,,42.965790,126.739820
2306975,伊春鹿鸣矿业有限公司,,0,有色金属矿采选业,0,0,0,,47.321250,128.505200
2418092,西藏奇正藏药股份有限公司,,0,中成药生产,0,0,0,,29.652380,94.366940
2420738,攀枝花市正源科技有限责任公司,,0,工业颜料制造,0,0,0,,26.807430,102.050580
2523795,广安昌宇药业有限公司,,0,医药制造业,0,0,0,,30.369110,106.739400
2594267,湖南省圣恒再生资源有限公司,,0,固体废物治理,0,0,0,,28.250010,112.395280
2879232,四川中车玉柴发动机股份有限公司,,0,船用配套设备制造,0,0,0,,30.170130,104.613760
2926592,唐山优艺胜星再生资源有限公司,,0,非金属废料和碎屑加工处理,0,0,0,,39.744000,118.519610
2995893,上海汇得科技股份有限公司,,0,,0,0,0,,30.728860,121.289520
3405558,广州白云山制药股份有限公司广州白云山制药总厂,,0,医药制造业,0,0,0,,23.084334,113.246446
3405568,河源市连平县锯板坑钨锡多金属矿,,0,采矿业,0,0,0,,24.461201,114.700792
3405572,大埔县新诚基工贸有限公司（五丰稀土矿）,,0,有色金属矿采选业,0,0,0,,24.355667,116.696066
3405603,中石化西南油气分公司川东北采气厂,,0,石油和天然气开采业,0,0,0,,31.749369,105.927940
3405699,江西临川鲁金矿业有限公司,,0,采矿业,0,0,0,,27.622077,116.514447
3405701,江西省泓汀实业有限公司,2017,1,塑料零件及其他塑料制品制造,0,0,0,,28.189773,116.573377
3405788,崇义县昌信矿业有限公司小坑多金属矿,,0,采矿业,0,0,0,,25.681784,114.308267
3405792,赣县世瑞新材料股份有限公司,,0,,0,0,0,,25.883168,115.027597
3405807,赣州市沙河生活垃圾卫生填埋场,,0,环境治理业,0,0,0,,25.831160,114.979605
3449660,江西晨光材料股份有限公司,,0,,0,0,0,,29.754789,116.292099
3449675,江西金海新能源科技有限公司,,0,锂离子电池制造,0,0,0,,27.902084,114.376387
3449703,万安县环境卫生管理所,,0,,0,0,0,,26.458254,114.786182
3449744,中海石油中捷化工有限公司,,0,石油、煤炭及其他燃料加工业,0,0,0,,38.456789,117.619736
3449773,晋豫焦化有限公司,2018,1,炼焦,0,0,0,,36.336814,111.972131
3449933,大田县龙口多金属矿选矿厂,,0,采矿业,0,0,0,,25.874598,117.911554
3449975,山东新华制药股份有限公司（东园）,,0,医药制造业,0,0,0,,36.794814,118.065243
3449979,东营市君威节能环保有限公司,,0,,0,0,0,,37.899165,118.752910
3449989,山东银鹰化纤有限公司——粘胶分公司,,0,化学纤维制造业,0,0,0,,36.389159,119.813659
3449991,潍坊东方盛联盟化工有限公司,,0,化学原料和化学制品制造业,0,0,0,,36.708861,119.055597
3449992,诸城市绿洲再生资源科技有限公司,,0,非金属废料和碎屑加工处理,0,0,0,,35.980416,119.545833
3450010,滨州市北辰环保科技有限公司,,0,,0,0,0,,37.297302,117.744087
3450016,山东曹县圣元环保电力有限公司生活垃圾焚烧发电项目,,0,垃圾焚烧发电,0,0,0,,34.796985,115.590335
3450071,抚顺兴科威化工厂,,0,化学原料和化学制品制造业,0,0,0,,41.806368,124.034420
3450075,中北石油化工有限公司,,0,石油、煤炭及其他燃料加工业,0,0,0,,40.838723,121.065102
3450080,长连化工（盘锦）有限公司,,0,化学原料和化学制品制造业,0,0,0,,40.764004,122.025626
3450090,吉林江机特种工业有限公司,,0,深海石油钻探设备制造,0,0,0,,43.912708,126.554697
3450138,广西佛子矿业有限公司（古益矿）,,0,采矿业,0,0,0,,23.406286,111.239307
3450144,宏鑫生物科技有限公司,,0,医药制造业,0,0,0,,22.088507,108.631317
3450145,广西中港皮业有限公司,,0,皮革、毛皮、羽毛及其制品和制鞋业,0,0,0,,21.859130,108.916810
3450190,宁夏朗欣再生资源有限公司,,0,专项化学用品制造,0,0,0,,37.946738,106.133990
3450206,盐池县美雅滩羊裘皮公司,,0,毛皮鞣制及制品加工,0,0,0,,37.768187,107.416118
3450211,宁夏天雨石油工程有限公司彭阳支公司,,0,石油、煤炭及其他燃料加工业,0,0,0,,36.029948,106.247683
3450225,米东固废综合处理厂,,0,,0,0,0,,43.973579,87.655755
3450243,巴里坤哈萨克自治县环卫所,,0,,0,0,0,,43.598762,93.016624
3450255,新疆中泰创安环境科技股份有限公司,,0,,0,0,0,,43.841100,87.508100
3450272,新疆富丽达化纤有限责任公司,,0,化学纤维制造业,0,0,0,,41.604755,86.195328
3450284,塔里木石油勘探开发指挥部沙漠运输公司绿色环保站,,0,石油、煤炭及其他燃料加工业,0,0,0,,41.708693,86.173298
3450292,温宿县生活垃圾填埋场,,0,垃圾填埋,0,0,0,,41.276688,80.238959
3450308,英吉沙县生活垃圾填埋场,,0,垃圾填埋,0,0,0,,38.930382,76.175729
3450369,哈巴河金坝矿业有限公司,2018,1,采矿业,0,0,0,,48.136804,86.588253
3450379,吴起龙玺科工贸有限公司,,0,,0,0,0,,36.950072,107.925052
3450381,延长石油管道运输第二分公司,,0,石油、煤炭及其他燃料加工业,0,0,0,,37.007895,109.832479
3450420,云南省永胜县宝坪铜业有限责任公司宝坪铜厂,,0,,0,0,0,,26.737555,100.558424
3450426,昆明合起工贸有限公司澄江氟化分公司,,0,涂料制造,0,0,0,,25.064407,102.753734
3450440,湘潭市湘鹤金属科技有限公司,,0,其他未列明金属制品制造,0,0,0,,27.961280,112.861446
3450441,上海九鼎粉体材料(湘潭)有限公司,,0,其他非金属矿物制品制造,0,0,0,,27.870367,112.787944
3450446,湘潭星河生化科技有限公司,,0,其他专用化学产品制造,0,0,0,,27.762094,112.847418
3450581,浏阳市化工厂,,0,化学原料和化学制品制造业,0,0,0,,28.265916,113.744744
3450691,临湘市强盛采矿业有限责任公司,,0,采矿业,0,0,0,,29.351752,113.511576
3450725,太平村金矿开采区周边场地,,0,采矿业,0,0,0,,28.675116,112.379607
3450748,汝城县茶山脚钨矿有限公司,,0,有色金属矿采选业,0,0,0,,25.534748,113.521828
3450758,桂阳五源矿业有限公司,,0,有色金属矿采选业,0,0,0,,26.117077,112.620567
3450772,新晃鑫鑫金峰矿业有限责任公司,,0,有色金属矿采选业,0,0,0,,27.214089,109.411325
3450902,洛阳香江万甚铝业有限公司,,0,有色金属压延加工,0,0,0,,34.719751,112.074653
3450940,安钢市新普有限公司,,0,,0,0,0,,36.158017,114.306155
3450942,河南利源煤焦集团（南厂）,,0,石油、煤炭及其他燃料加工业,0,0,0,,36.268948,114.089650
3450999,河南省福阳再生资源有限公司,,0,,0,0,0,,33.614868,114.022732
3451001,舞阳县洁美环卫有限公司,,0,,0,0,0,,33.561145,114.025771
3451031,唐河县殡仪馆,,0,遗体火化,0,0,0,,32.696064,112.779646
3451053,平舆县垃圾处理有限公司,,0,环境治理业,0,0,0,,33.327504,113.680479
3451060,正阳县生活垃圾处理厂,,0,环境治理业,0,0,0,,32.596165,114.376207
3451063,正阳县圆梦居殡仪馆,,0,遗体火化,0,0,0,,32.630092,114.481012
3451099,白银万山稀贵金属有限责任公司,,0,金属制品业,0,0,0,,36.570349,104.162684
3451105,中石油武威油库,,0,石油、煤炭及其他燃料加工业,0,0,0,,37.921670,102.624310
3451133,甘肃招金贵金属有限公司,,0,金属制品业,0,0,0,,35.783978,103.722611
3451741,沁水县恒盛金属加工厂有限公司,,0,金属制品业,0,0,0,,35.567506,112.594937
3452309,江苏友成再生资源有限公司,,0,危险废物治理,0,0,0,,33.643433,119.066681
3453798,浙江凯恩特种材料有限公司,,0,,0,0,0,,28.578780,119.254629
3454092,大田县文江乡桥下铁矿有限公司,,0,黑色金属矿采选业,0,0,0,,25.986229,117.873568
3454258,永春玉斗镇生活垃圾无害化处理场项目,,0,环境治理业,0,0,0,,25.392523,118.038409
3454273,南安市吉利来电镀有限公司,,0,金属表面处理及热处理加工,0,0,0,,24.967252,118.373105
3454289,漳平市佳鑫矿业有限公司下大坑褐铁矿,,0,采矿业,0,0,0,,25.586963,117.303081
3454292,漳平市东坑生活垃圾填埋场,,0,垃圾填埋,0,0,0,,25.304194,117.446621
3454299,福建中晶科技有限公司,,0,,0,0,0,,24.960000,116.892196
3454345,霞浦盐田合成革污水处理有限公司,,0,水污染治理,0,0,0,,26.853442,119.850003
3454348,古田县环卫处,,0,,0,0,0,,26.576396,118.750165
3454371,长泰县垃圾无害化填埋场,,0,环境治理业,0,0,0,,24.625449,117.759153
3454732,辽阳庆阳特种化工有限公司,,0,化学原料和化学制品制造业,0,0,0,,41.270699,123.288727
3454875,长春市环科废油脂试验厂,,0,非金属废料和碎屑加工处理,0,0,0,,43.963685,125.542414
3454922,依兰县依兰镇城市生活垃圾处理厂,,0,环境治理业,0,0,0,,46.327316,129.563481
3454923,哈尔滨国环医疗固体废物无害化集中处罝中心有限公司,,0,,0,0,0,,45.896725,126.638784
3454929,齐齐哈尔市锐拓废油回收有限公司,,0,废弃资源综合利用业,0,0,0,,47.309537,123.752910
3454945,友谊县友谊镇垃圾处理场,,0,环境治理业,0,0,0,,46.780897,131.811348
3454948,大庆鸣泰特钢有限公司,,0,铁合金冶炼,0,0,0,,46.584709,124.997107
3455025,大庆市嘉宝皮化有限公司,,0,,0,0,0,,45.824346,124.458501
3457513,四川乐康药用辅料有限公司,,0,卫生材料及医药用品制造,0,0,0,,30.519537,106.439853
3457529,蓝星（西昌）航天化工有限公司,,0,化学原料和化学制品制造业,0,0,0,,28.200433,102.127041
3458002,西藏神猴药业有限责任公司,,0,医药制造业,0,0,0,,28.157886,85.979237
1319955,唐山市丰润区茂恒金属制品有限公司,2019,2,其他未列明金属制品制造,0,0,0,,39.789162,118.143028
219386,新乡马氏皮业有限公司,2019,6,皮革、毛皮、羽毛及其制品和制鞋业,59725,0,0,,34.991701,114.430970
225979,闽清新保隆再生资源有限公司,2015,1,非金属废料和碎屑加工处理,53334,0,0,,26.147859,118.757674
226541,安徽泰达新材料股份有限公司,,0,其他基础化学原料制造,23547,0,0,,29.828047,118.361941
226588,安徽海容电源动力股份有限公司,2015,1,电池制造,20369,0,0,,31.266667,117.416667
226644,范县诚信石化有限公司,2017,4,精炼石油产品制造,23942,1,0,,35.776499,115.392880
226678,甘肃华壹环保技术服务有限公司,,0,固体废物治理,16368,0,0,,36.359750,103.919870
226749,湖北中科铜箔科技有限公司,2015,1,半导体器件专用设备制造,20338,1,0,,31.286796,113.709576
226753,湖南衡兴环保科技开发有限公司,2019,3,固体废物治理,17701,1,0,,26.850000,112.780000
226812,贵溪市鲍家矿业有限公司,2016,2,有色金属矿采选业,23675,0,0,,27.899631,117.197507
226887,徽县明昊矿业有限责任公司,,0,有色金属矿采选业,16455,0,0,,33.871666,105.803055
226967,金华市莱逸园环保科技开发有限公司,2018,2,环境治理业,20250,1,0,,29.104440,119.643780
226990,晋中开发区光明机械厂,2018,2,机械零部件加工,72798,0,0,,37.683621,112.684130
3689488,义乌丽红染整有限公司,2016,1,,0,0,0,,29.148870,120.028739
227240,青岛新世纪环境工程有限公司,,0,,51039,0,0,,35.928860,120.026118
227265,山东东佳集团股份有限公司,2018,29,其他基础化学原料制造,23046,1,0,,36.487070,117.877048
227292,山西永祥煤焦集团有限公司,2019,7,石油、煤炭及其他燃料加工业,24537,0,0,,35.669516,110.993696
227330,神龙汽车有限公司,,0,汽车整车制造,23596,0,0,,30.492900,114.167470
502,安阳宏大钛白粉有限公司,2018,8,其他专用化学产品制造,0,0,0,,35.956270,114.885370
11095828,广安诚信化工有限公司,2019,4,基础化学原料制造,24288,0,0,,30.495661,106.850739
11095946,成都晋林工业制造有限公司,2015,8,金属制品业,1051,0,0,,30.976532,103.961961
11098872,江苏省新大发经编科技有限公司,2016,1,,57287,1,0,,33.578552,119.124280
1334593,莱州市鸿铖矿业环保开发有限公司,2018,17,非金属废料和碎屑加工处理,0,0,0,,37.204320,119.953803
11100177,开封市永和有色金属有限公司,2019,2,其他未列明制造业,40723,0,0,,34.284320,113.995461
227388,苏州市康洁物资再生有限公司,2016,4,废弃资源综合利用业,20934,0,0,,31.495865,120.612422
227396,随州市双鑫矿业有限责任公司,,0,有色金属矿采选业,23633,0,0,,32.226657,113.284210
227466,无锡清碧水处理设备有限公司,2017,5,专用设备制造业,20884,0,0,,31.629280,120.264888
227479,武汉新芯集成电路制造有限公司,,0,智能无人飞行器制造,16811,1,0,,30.452620,114.442050
227582,烟台市黄金冶炼有限责任公司,2017,6,有色金属矿采选业,51196,0,0,,37.578387,121.150389
227586,延长油田公司靖边采油厂,,0,石油和天然气开采业,65386,0,0,,37.591167,108.796359
227613,沂水金山皮业有限公司,2018,12,皮革、毛皮、羽毛及其制品和制鞋业,23354,0,0,,35.715730,118.569800
227666,云南国能化工有限公司,2017,1,磷肥制造,21403,0,0,,25.430230,103.262850
227812,常州市工业固体废弃物安全填埋场,,0,环境治理业,20925,0,0,,31.540605,120.026954
227888,凡特鲁斯特种化学品(南通)有限公司,,0,化学纤维制造业,32800,1,0,,31.904750,120.925890
227938,甘肃虹光电子有限公司,,0,可穿戴智能设备制造,16403,0,0,,35.537961,106.697792
227946,赣州卓越再生资源综合利用有限公司,,0,非金属废料和碎屑加工处理,23709,1,0,,24.843888,114.823611
227996,贵溪三元金属有限公司,2018,2,有色金属冶炼和压延加工业,23677,0,0,,28.271298,117.152890
228046,合浦东诚皮革制品有限公司,2017,1,皮革、毛皮、羽毛及其制品和制鞋业,24931,0,0,,21.635149,109.186010
228180,江苏康博工业固体废弃物处置有限公司,2018,1,环境治理业,21064,1,0,,31.676880,120.768210
228184,江苏如皋钢铁有限公司,2015,1,黑色金属冶炼和压延加工业,24624,0,0,,32.104080,120.555920
228194,江西海宸光电科技有限公司,,0,,23670,0,0,,27.841260,115.037240
228333,隆化县浩政矿业有限责任公司,2017,1,黑色金属铸造,16688,0,0,,41.572151,117.115490
228366,茂县鑫盐化工有限公司,,0,无机盐制造,58207,0,0,,31.582752,103.743745
228510,山东中绿资源再生有限公司,2018,8,金属废料和碎屑加工处理,23415,0,0,,35.116180,118.426050
228571,石棉县乾锐金属有限公司,,0,铅锌冶炼,20168,0,0,,29.241200,102.299800
228594,四川省汉源宏达有限责任公司,2016,1,铅锌冶炼,20170,0,0,,29.151500,102.295200
228656,天能集团江苏科技有限公司,,0,电池制造,20989,1,0,,34.091900,118.828100
228662,通辽泰鼎有色金属加工有限公司,,0,有色金属冶炼和压延加工业,67333,0,0,,42.949348,122.371496
228681,威海市环保科技服务有限公司,,0,非金属废料和碎屑加工处理,23408,1,0,,37.508030,122.112040
228702,长庆油田第二采油厂,,0,石油和天然气开采业,16469,0,0,,36.006493,107.886857
228728,武宣县晓理贸易有限责任公司,,0,有色金属矿采选业,25065,0,0,,23.180000,109.250000
228729,武宣县正祥矿业有限公司,,0,铅锌冶炼,25063,0,0,,23.602986,109.663056
228782,新疆星塔矿业有限公司,,0,金冶炼,17353,0,0,,45.403038,84.451944
228869,永兴县元泰应用材料有限公司,,0,贵金属冶炼,17797,0,0,,26.086375,113.089212
228947,浙江医药股份有限公司维生素厂,2016,1,医药制造业,20229,1,0,,30.097520,120.611607
229471,江苏华神电子有限公司,2016,2,电子器件制造,48104,1,0,,31.285360,120.989690
229642,龙海市荣盛电子有限公司,2017,5,金属表面处理及热处理加工,53747,0,0,,24.440019,117.822417
3450005,山东中阔环保科技有限公司,2018,2,,0,0,0,,35.080713,119.073282
3455058,铁力市德金矿业有限公司,2015,1,有色金属矿采选业,0,0,0,,46.943532,128.425464
230490,武汉绿色动力再生能源有限公司,2015,2,垃圾焚烧发电,32502,0,0,,30.637020,114.511080
230659,七台河矿业精煤(集团)有限责任公司煤气厂,,0,石油、煤炭及其他燃料加工业,46465,0,0,,45.765779,131.007950
230838,福建德晟环保技术有限公司,2014,1,,53143,0,0,,24.878350,116.247520
231622,内蒙古太西煤集团金昌鑫华焦化有限责任公司,,0,其他非金属矿物制品制造,32513,1,0,,38.424280,102.053940
236124,四川美青化工有限公司,2016,4,肥料制造,10938,0,0,,30.845910,105.378820
239229,河北钢铁集团敬业钢铁有限公司,,0,炼钢,18072,0,0,,38.430556,114.223056
247292,安徽均益金属科技股份有限公司,2018,2,金属丝绳及其制品制造,30404,0,0,,30.696313,117.536708
247800,ECCO皮革（厦门）有限公司,,0,皮革鞣制加工,40132,0,0,,24.719798,118.123790
253304,甘肃翔达新颜料科技股份有限公司,2015,1,涂料、油墨、颜料及类似产品制造,32664,0,0,,34.746758,105.331299
254039,福州一化化学品股份有限公司,2015,2,化学原料和化学制品制造业,53324,1,0,,25.888686,119.176684
256155,上海鑫冶铜业有限公司,2019,9,其他常用有色金属冶炼,70741,1,0,,30.802439,121.280259
259071,内蒙古神舟硅业有限责任公司,2018,11,石墨及其他非金属矿物制品制造,8406,1,0,,40.720436,111.752429
266326,缙云县同泰金属表面处理厂,2018,7,金属制品业,50214,1,0,,28.749641,120.085938
272156,厦门宜境环保科技有限公司,2015,1,,53119,0,0,,24.525419,117.982806
279846,蒙自矿冶有限责任公司,2016,1,黑色金属矿采选业,8121,1,0,,23.372850,103.374370
281109,梅州市城市垃圾处理中心,2018,1,环境治理业,16025,0,0,,24.293468,116.187936
281326,福建省金纶高纤股份有限公司,,0,化纤浆粕制造,17119,1,0,,25.831863,119.572753
281814,湖南省临武嘉宇矿业有限责任公司,2016,3,采矿业,20749,0,0,,25.445000,112.584444
282038,浙江南都电源动力股份有限公司,,0,其他电池制造,21832,0,0,,30.268564,120.096527
282151,温州科锐环境资源利用有限公司,2016,1,废弃资源综合利用业,24741,0,0,,27.990140,120.597600
282311,冷水江市狮子山锑业有限公司,,0,,25326,0,0,,27.473700,111.300000
282350,宁波博威合金材料股份有限公司,,0,有色金属合金制造,25692,0,0,,29.757361,121.596997
282514,宁夏莱德环保能源有限公司,,0,石油和天然气开采业,26119,0,0,,37.344527,106.600370
282950,湖北省宏源药业有限公司（经济开发区新厂）,,0,医药制造业,26748,1,0,,30.744410,115.361530
282981,湖南东方矿业有限责任公司,2018,4,其他贵金属冶炼,26791,0,0,,28.413947,109.424358
282987,巢湖市万山医疗废物处置有限责任公司,2019,1,环境治理业,26800,1,0,,31.661389,117.869444
283086,新疆沈宏集团股份有限公司（铬盐二厂）,,0,,27215,0,0,,43.151928,89.439925
283490,中国石油辽河油田茨榆坨采油厂,,0,石油和天然气开采业,27674,0,0,,41.523212,122.903066
283656,恒天海龙（潍坊）新材料有限责任公司,2017,6,化纤织造加工,27920,1,0,,36.460000,119.100000
283661,内蒙古锦联铝材有限公司,2017,6,,27928,1,0,,45.418336,119.612574
283717,中国平煤神马集团平顶山京宝焦化有限公司,,0,煤炭加工,28805,1,0,,34.002700,112.966360
283840,大庆油田有限责任公司第七采油厂,2017,2,石油和天然气开采业,28981,0,0,,45.919521,124.667219
283868,浙江长久能源科技股份有限公司,2016,1,,29085,0,0,,30.996602,119.898426
283994,台州齐合天地金属有限公司,,0,有色金属冶炼和压延加工业,29475,1,0,,28.527825,121.374348
284062,延边石岘双鹿实业有限责任公司,2018,2,机制纸及纸板制造,29630,1,0,,43.082620,129.781630
284199,衢州华友钴新材料有限公司,2016,2,专项化学用品制造,29846,1,0,,28.867550,118.868630
284234,河池五吉有限责任公司采选厂,,0,有色金属矿采选业,29901,1,0,,24.591000,107.880000
286172,联化科技（德州）有限公司,2018,7,生物化学农药及微生物农药制造,38602,1,0,,37.129784,116.536580
286299,庆云信远化学科技有限公司,2017,6,有机化学原料制造,48285,0,0,,37.796695,117.419105
287091,临沂永洁环保废物处置有限公司,2018,6,环境治理业,33237,1,0,,35.148753,118.173438
288701,唐山晟博环保科技有限公司,2016,1,水污染治理,42804,0,0,,39.242557,118.180047
292406,江西蓝星星火有机硅有限公司,2016,3,其他未列明制造业,30651,1,0,,29.103050,115.788530
293261,任丘市科蓝达金属表面处理有限公司,2017,1,金属表面处理及热处理加工,55095,0,0,,38.633510,116.092910
293267,河北丰源环保科技股份有限公司,,0,其他水利管理业,39571,1,0,,38.350780,116.795640
294199,常熟风范电力设备股份有限公司,,0,金属结构制造,42824,1,0,,31.638304,120.609790
299090,鲁西化工集团股有限公司动力分公司,,0,肥料制造,34341,0,0,,36.343761,116.261993
299920,尉氏县鑫源钼业有限公司,,0,金属废料和碎屑加工处理,40727,0,0,,34.330400,114.051050
299999,建阳贯天际实业有限公司,2017,2,其他电池制造,34694,0,0,,27.342510,118.077000
300017,茌平信发聚氯乙烯有限公司,2018,3,有机化学原料制造,51479,1,0,,36.604019,116.249573
300927,桂林电器科学研究院有限公司,,0,其他通用设备制造业,34752,0,0,,25.291102,110.318871
300943,资源县钨矿,,0,有色金属矿采选业,34759,0,0,,26.334388,111.019289
301680,泰州华昊废金属综合利用有限公司,2017,1,金属制品业,60782,0,0,,32.792700,119.981530
301741,宿迁雷克电源有限公司,,0,电池制造,35611,0,0,,33.472920,118.190150
301951,芜湖新芜电镀有限公司,,0,金属表面处理及热处理加工,30202,0,0,,31.175278,118.583611
301954,集瑞联合重工有限公司,2018,1,机械零部件加工,30205,0,0,,31.231020,118.189900
301955,芜湖麦王水务有限公司,2016,3,自来水生产和供应,30207,0,0,,31.365443,118.331571
302036,安徽天大石油管材股份有限公司滁州分公司,,0,其他建筑、安全用金属制品制造,30334,0,0,,32.288218,118.337897
302044,阜阳市利康医疗废物处置有限公司,,0,环境治理业,30345,0,0,,32.963889,115.795000
302098,宣城市九鼎医疗废物集中处置中心,,0,环境治理业,30421,0,0,,30.607400,118.939692
302103,广德华东电子电路发展有限公司,,0,计算机、通信和其他电子设备制造业,30426,1,0,,30.892105,119.460106
11684001,聊城市华东工具制造有限公司,2018,14,金属成形机床制造,0,0,0,,36.667870,115.835830
302628,夏河县冰华矿业有限责任公司,,0,有色金属矿采选业,36224,0,0,,35.202503,102.521807
302631,舟曲县博大矿业有限责任公司,,0,有色金属矿采选业,35495,0,0,,33.430973,104.394095
1315392,江苏肯创催化剂再生技术有限公司,2019,1,专用化学产品制造,0,0,0,,31.781250,119.560600
303508,剑阁县禹鑫化工有限公司,,0,化学试剂和助剂制造,35714,0,0,,32.027479,105.487445
304558,泉州市医疗废物处置中心,2017,2,环境治理业,53620,0,0,,24.911859,118.599579
304609,南平绿洲环境科技有限公司,,0,危险废物治理,53933,0,0,,27.480901,118.841789
304730,宁德市医疗废物处置中心,,0,环境治理业,53998,0,0,,26.703536,119.562111
305364,民乐富源化工有限责任公司,2018,1,其他基础化学原料制造,36293,0,0,,38.750900,100.779800
305399,武威市好年华蓄电池厂,,0,电池制造,36396,0,0,,37.983890,102.528050
248625,哈巴河华泰黄金有限责任公司,2019,6,有色金属矿采选业,0,0,0,,48.185794,86.011216
306872,泰安市泰阳环保服务有限公司,2019,2,,66656,0,0,,35.954682,117.089238
307792,平原信达化工股份有限公司,2019,11,专用化学产品制造,38603,0,0,,37.242400,116.510750
308988,河南龙润能源科技有限公司,2018,3,基础化学原料制造,60025,0,0,,35.750728,115.185028
309906,福建漳州华高电源科技有限公司,2016,2,其他电池制造,53738,0,0,,23.772358,117.267262
323398,湖南新合新生物医药有限公司,2017,1,医药制造业,58736,0,0,,29.563090,111.876327
334473,巴州凯宏矿业有限责任公司,,0,黑色金属矿采选业,38871,0,0,,43.175850,84.987733
336546,绵阳铜鑫铜业有限公司,2016,1,金属结构制造,39040,0,0,,31.401744,104.834708
338973,江西千色新型无机材料有限公司,,0,工业颜料制造,52654,0,0,,29.236220,115.156010
340337,湖北吴城钢铁集团有限公司,2014,1,炼钢,42522,1,0,,30.339859,114.865769
350331,嘉峪关刘氏泰和环保科技有限公司,2016,1,批发和零售业,67576,0,0,,39.785730,98.361610
412854,马尔康汇源硅业有限公司,2016,1,其他非金属矿物制品制造,42677,0,0,,31.882025,102.087248
512741,桐乡市益能材料处理有限公司,2016,2,其他未列明制造业,39670,0,0,,30.621599,120.564169
305081,贵州风雷航空军械有限责任公司,2018,3,,0,0,0,,26.192434,105.879240
519216,华北铝业有限公司,2018,3,有色金属冶炼和压延加工业,43717,1,0,,39.454970,115.972420
519733,太原市梗阳实业集团有限公司清徐焦化分公司,2017,1,煤炭加工,43720,1,0,,37.589350,112.342580
527297,维达护理用品（中国）有限公司,,0,纸制品制造,28867,1,0,,30.886070,113.964530
543176,淄博熙源石油化工有限公司,2019,1,化学原料和化学制品制造业,0,0,0,,36.913297,118.266326
3450662,湖南鑫科思生物科技有限公司,2019,4,医药制造业,0,0,0,,26.970496,112.640084
589459,郑州彩源凹印制版有限公司,,0,印刷,59275,0,0,,34.802163,113.400413
624626,金凯（辽宁）化工有限公司,2018,2,其他专用化学产品制造,42907,0,0,,41.832630,121.515167
652163,山东阳光颜料有限公司,2018,7,化学试剂和助剂制造,43925,0,0,,35.383890,116.608960
663344,重庆奥力生物制药有限公司,2016,1,化学药品制剂制造,44025,0,0,,30.776916,108.461091
708549,北京雅士科莱恩石油化工有限公司,,0,原油加工及石油制品制造,39986,0,0,,40.059092,116.665950
728785,德州德药制药有限公司,2018,3,化学药品制剂制造,62865,1,0,,37.453050,116.321540
754615,扬子江药业集团江苏海慈生物药业有限公司,,0,医药制造业,57607,1,0,,32.294055,119.867530
760996,山东泰和水处理科技股份有限公司,,0,专用化学产品制造,68534,1,0,,34.806360,117.608870
794184,国能扶沟生物发电有限公司,,0,热力生产和供应,60282,1,0,,34.069820,114.417630
831712,重庆华维实业有限责任公司,2008,1,纺织业,17230,0,0,,29.799767,107.010167
859385,浙江仙居君业药业有限公司,2017,4,化学药品原料药制造,29524,1,0,,28.839170,120.749840
976877,内蒙古庆华集团庆华煤化有限责任公司,2017,9,炼焦,8402,1,0,,39.429444,106.722222
977973,唐山宝利源炼焦有限公司,2019,24,炼焦,41224,0,0,,39.868226,118.572966
984615,沈阳科创化学品有限公司,2014,2,化学原料和化学制品制造业,10631,1,0,,41.740010,123.163300
1039533,山东海力化工股份有限公司,2018,26,化学原料和化学制品制造业,9770,1,0,,37.050288,117.874700
1104472,乐山金石焦化有限公司,2017,4,煤炭加工,44157,0,0,,29.104941,103.724790
1110332,山西沁新能源集团股份有限公司焦化厂,2016,2,炼焦,43260,1,0,,36.555133,112.261561
1113020,山西曙光诚信焦化有限公司,2017,2,煤炭加工,39725,0,0,,35.582165,110.808249
1114744,洛阳市太学染化有限公司,2017,2,工艺美术颜料制造,43266,1,0,,34.702216,112.644795
1115407,山西复晟铝业有限公司,2017,1,有色金属冶炼和压延加工业,39799,0,0,,34.834722,111.240278
1120721,江苏金翔石油化工有限公司,2016,1,原油加工及石油制品制造,59210,0,0,,32.169370,118.891840
1145188,徐州泰发特钢科技有限公司,2019,24,炼钢,31545,1,0,,34.448450,117.281590
1307653,东至经济开发区固废处置中心有限公司,2017,3,固体废物治理,50026,0,0,,30.482582,117.065242
1308968,山西西山煤气化有限责任公司（二厂）,2017,2,,43385,0,0,,37.860852,112.050711
1309486,阜阳欣奕华材料科技有限公司,2017,1,其他电子设备制造,74102,0,0,,32.792500,115.910590
1312617,龙海市烨明工贸有限公司,2017,3,其他工艺美术及礼仪用品制造,53044,0,0,,24.353133,117.907362
1319963,唐山市国贸润滑油脂有限公司,,0,原油加工及石油制品制造,44796,0,0,,39.639155,117.984527
1320519,山西美锦焦化,,0,炼焦,45008,0,0,,37.585802,112.290614
1323598,永兴县众德环保科技有限公司,2016,1,,58908,0,0,,26.310704,113.241796
1323734,徐州建韬能源有限公司,,0,,43688,0,0,,34.739605,116.634224
1323871,考伯斯（江苏）炭素化工有限公司,2018,1,煤炭加工,45069,0,0,,34.396230,117.954230
1326818,滨海华彬石化有限公司,,0,石油、煤炭及其他燃料加工业,43845,0,0,,30.176703,120.680190
1326833,浙江华海立诚药业有限公司,,0,化学药品原料药制造,43852,1,0,,28.808439,121.163830
1326907,浙江金泰莱环保科技有限公司,,0,有色金属冶炼和压延加工业,73870,1,0,,29.267252,119.288931
1330842,大通松岳工贸有限公司,,0,,62593,0,0,,36.784792,101.768105
1331493,清远市龙湾工业投资有限公司,2018,1,金融业,45724,0,0,,23.701918,112.901210
1331834,利华益利津炼化有限公司,2017,4,原油加工及石油制品制造,40515,1,0,,37.522101,118.230002
1331840,山东金信实业有限公司,2016,1,毛皮鞣制加工,40526,0,0,,34.819537,118.108468
1334744,郴州钖涛环保科技有限公司,,0,其他专用化学产品制造,58851,1,0,,25.904902,113.168023
1335343,郑州瀚洋天辰危险废物处置有限公司,,0,环境治理业,59331,1,0,,34.552904,113.693362
1336078,山东扬子化工有限公司,2018,2,化学原料和化学制品制造业,49143,0,0,,34.964637,117.279699
1404517,内蒙古伊泰化工有限责任公司,2018,1,肥料制造,67438,0,0,,40.029150,108.523900
1411578,许昌卫洁医疗废物处置有限公司,,0,危险废物治理,60128,0,0,,34.041779,113.745905
1418002,日照磐岳环保科技有限公司,2016,1,,61742,1,0,,35.466173,118.725466
1421409,开封中节能再生能源有限公司,2018,1,其他污染治理,40900,1,0,,34.729350,114.332480
1421418,深圳市能源环保有限公司宝安垃圾发电厂(一期),,0,电力、热力生产和供应业,40913,0,0,,22.817715,113.853943
1432469,阿克塞县泰戈化工有限责任公司,,0,化学原料和化学制品制造业,47920,0,0,,39.582551,94.278335
1469227,内蒙古隆盛特钢有限公司,2017,2,有色金属冶炼和压延加工业,67436,0,0,,40.858070,113.800158
1480737,巴彦淖尔市静脉产业园高新技术环保有限公司,2019,2,批发和零售业,71821,0,0,,41.002161,109.251574
1623243,鹤岗万达化工有限公司,,0,专项化学用品制造,58049,0,0,,47.324400,130.401990
2022464,内蒙古中西矿业有限公司,2018,3,有色金属矿采选业,67412,0,0,,40.891650,112.580030
2078830,江苏理士电池有限公司,,0,其他制造业,6100,1,0,,33.005640,118.981440
2116885,郑州东林润光伏材料科技有限公司,,0,其他非金属加工专用设备制造,59302,0,0,,34.417490,113.728930
2524670,洛阳德正废弃资源再利用有限公司,,0,废弃资源综合利用业,59442,0,0,,34.403150,112.582310
3402903,景德镇康栋环保石化有限公司,,0,石油、煤炭及其他燃料加工业,52620,0,0,,29.306486,117.144963
3404153,青岛海湾化学有限公司,2018,3,其他合成材料制造,49505,1,0,,35.642412,119.751620
3449763,首钢长治钢铁有限公司焦化厂,,0,黑色金属冶炼和压延加工业,70050,0,0,,36.361179,113.053430
3449880,内蒙古利元科技有限公司,,0,基础化学原料制造,72136,0,0,,37.601993,105.024035
3450389,汉中石门危险废物集中处置中心,2018,2,危险废物治理,65454,0,0,,33.188067,106.928110
3450774,怀化市华兴冶炼厂,,0,锑冶炼,58659,0,0,,27.845133,110.611447
3450781,湖南天宏材料科技有限公司,2017,2,金属结构制造,58484,0,0,,27.442094,112.148781
3449892,西乌珠穆沁旗金田氟化工有限责任公司,,0,化学原料和化学制品制造业,67450,0,0,,44.774428,118.487199
3449914,福建省中江石化有限公司,,0,石油、煤炭及其他燃料加工业,53281,0,0,,25.444542,119.286168
3449980,东营争峰新能源技术有限公司,,0,,67952,0,0,,37.087038,118.410910
3450907,伊川县金鑫塑料助剂厂,,0,专用化学产品制造,0,0,0,,34.327346,112.313488
3450886,洛阳德鑫环保科技有限公司,,0,,59437,0,0,,34.853831,112.553143
3451107,张掖市垃圾处理厂,,0,环境治理业,67673,0,0,,38.932897,100.455472
3451143,临夏市生活垃圾填埋处理厂,,0,垃圾填埋,67823,0,0,,35.499159,103.011443
3454851,安徽浩悦环境科技有限责任公司,,0,自然生态系统保护管理,50002,1,0,,31.865874,117.285021
3454941,双洁垃圾处理中心,,0,环境治理业,58062,0,0,,46.611118,131.312091
3454133,大田力天环保有限公司,2019,1,固体废物治理,53839,0,0,,25.692699,117.847115
3454296,连城县山河环保有限公司（县城垃圾填埋场）,2019,1,垃圾填埋,53812,0,0,,25.710539,116.754473
3454992,大庆市合新鼎化工科技有限公司,,0,化学原料和化学制品制造业,58076,0,0,,46.467454,125.013458
3455026,大庆市肇源县晨晰非金属废料加工有限公司,2015,1,非金属废料和碎屑加工处理,58087,0,0,,45.557397,125.123520
3466188,赢创特种化学(上海)有限公司,,0,化学原料和化学制品制造业,30105,1,0,,30.789966,121.457023
3481262,艾诺斯（重庆）华达电源系统有限公司,2015,1,电池制造,26346,0,0,,29.480432,105.750322
3486125,捷普科技（成都）有限公司,,0,电力电子元器件制造,37193,0,0,,30.581152,103.718515
3530462,常州龙澄污水处理有限公司,,0,水污染治理,958,1,0,,31.779302,120.018311
3594169,上海杜邦农化有限公司,2019,1,其他基础化学原料制造,30069,1,0,,31.329066,121.574310
413016,金川县金星氯酸盐厂,2019,2,专项化学用品制造,0,0,0,,31.318487,102.006061
3677248,绵阳佳联印染有限责任公司,2008,2,棉印染精加工,31004,0,0,,31.077596,105.093939
11091645,河南神马氯碱发展有限公司,2014,4,化学原料和化学制品制造业,4252,0,0,,33.719938,113.388763
11092282,冷水江市光荣锑业有限责任公司,2018,9,有色金属冶炼和压延加工业,17814,1,0,,27.775251,111.500772
11095679,全南县新资源稀土有限公司,2007,1,有色金属冶炼和压延加工业,9513,1,0,,24.726109,114.530392
293,安徽三星化工有限责任公司,2015,6,其他基础化学原料制造,144,0,0,,33.495690,116.233250
293286,沧州市益康医疗废弃物集中处置有限公司沧东工业园分公司,,0,,49309,0,0,,38.316611,116.895411
526988,鹤壁市恒丰化工有限公司,2017,1,专用化学产品制造,0,0,0,,35.755670,114.313537
1336101,长庆油田分公司第一采油厂,2019,42,石油和天然气开采业,0,0,0,,36.664040,109.440100
1845,常熟市世昌皮革有限公司,2018,6,皮革、毛皮、羽毛及其制品和制鞋业,56505,0,0,,31.713311,120.992747
2605,成都华明光源材料有限公司,2017,11,通用设备制造业,1048,0,0,,32.530000,102.166000
4703,东营华泰清河实业有限公司,2015,14,其他纸制品制造,23064,1,0,,37.251466,118.667914
4873,恩施山寨皮革有限公司,2016,5,纺织、服装和皮革加工专用设备制造,20200,0,0,,30.260360,109.478550
6495,福建三安钢铁有限公司,2013,2,钢压延加工,2305,1,0,,25.240950,118.044490
11135000,福建青拓镍业有限公司,2017,14,有色金属合金制造,31741,0,0,,26.756283,119.764082
11135692,河钢股份有限公司唐山分公司,2019,4,炼铁,30774,1,0,,40.233333,118.143056
24050,山东省日照钢铁控股集团有限公司,2018,8,有色金属冶炼和压延加工业,18198,1,0,,35.159669,119.374276
11139705,常州市武进双惠环境工程有限公司,2017,10,基础化学原料制造,24060,1,0,,31.563145,119.868285
183823,泰安北控环境能源开发有限公司,2017,4,垃圾焚烧发电,11358,1,0,,36.177917,116.978464
10038,河北吉藁化纤有限责任公司,2019,18,其他纸制品制造,4040,1,0,,38.036990,114.874842
10699,衡阳远景钨业有限责任公司,2015,3,有色金属矿采选业,4524,1,0,,26.530099,113.010052
10899,洪泽滇池水务有限公司,2018,9,水的生产和供应业,4557,1,0,,33.289904,118.847038
3450007,亚萨合莱国强(山东）五金科技有限公司,2018,3,金属门窗制造,0,0,0,,37.751694,117.204064
3450013,山东广富集团焦化有限公司,2018,4,煤炭加工,0,0,0,,36.943656,117.630329
12204,鸡东北方焦化有限责任公司,2010,1,炼焦,30987,0,0,,45.336923,131.461826
824636,柳州长虹航天技术有限公司,2018,4,金属制品业,0,0,0,,24.514780,109.349880
11151468,山西煤炭运销集团大同晋银矿业有限公司,2018,3,其他未列明电气机械及器材制造,26846,0,0,,39.396944,114.229444
18617,卢龙县双益磷化有限责任公司,2018,6,磷肥制造,7780,0,0,,39.796584,119.025349
19373,内蒙古乌拉山化肥有限责任公司,2016,8,复混肥料制造,21147,0,0,,40.671770,108.741680
20389,南京云泰化工总厂,2018,3,化学原料和化学制品制造业,59026,0,0,,32.022736,118.780373
11156583,崇州市华议皮革有限公司,2018,1,皮革、毛皮、羽毛及其制品和制鞋业,20099,0,0,,30.589608,103.688242
11162831,白城鑫红钻股份有限公司,2015,1,批发和零售业,42939,0,0,,45.574600,122.899070
11177443,宁夏泰瑞制药股份有限公司,2018,11,兽用药品制造,8832,0,0,,38.393232,106.278651
23926,山东光华纸业集团有限公司,2017,10,其他纸制品制造,9761,1,0,,35.273421,117.958947
23980,山东金虹钛白化工有限公司,2018,24,其他基础化学原料制造,9832,1,0,,36.560567,117.845981
24021,山东晋煤明水化工集团有限公司,2018,9,化学原料和化学制品制造业,9844,1,0,,36.697013,117.528423
24398,陕西陕焦化工有限公司,2019,47,炼焦,10123,1,0,,34.886599,108.996779
11200734,江西铜业集团东同矿业有限责任公司,2011,1,采矿业,6456,0,0,,28.271944,116.473056
6610,清流县东莹化工有限公司,2015,4,化学原料和化学制品制造业,53860,0,0,,26.205095,116.892926
69189,山西兆丰铝业有限公司（氧化铝分公司）,2018,19,有色金属压延加工,39706,1,0,,37.867820,113.626620
11202478,宝鸡众喜凤凰山水泥有限公司,2019,2,石膏、水泥制品及类似制品制造,41586,1,0,,34.469020,107.774650
10981,湖北驰顺化工有限公司,2016,8,专用化学产品制造,0,0,0,,29.730790,115.224880
28644,石家庄市飞宏化工有限公司,2017,3,化学原料和化学制品制造业,10717,0,0,,38.126100,114.966504
211845,中铝稀土（阜宁）有限公司,2018,5,,0,0,0,,33.648550,119.781044
29833,绥宁县宝庆联纸有限公司,2018,17,机制纸及纸板制造,11262,1,0,,26.590909,110.151278
32009,桐庐新合电镀制品有限公司,2016,5,其他金属制日用品制造,11830,1,0,,29.696066,119.939353
18858,罗江晨明生物制品有限公司,2016,2,有机化学原料制造,0,0,0,,31.251988,104.520307
11205936,内蒙古亿利化学工业有限公司,2015,1,化学原料和化学制品制造业,23875,1,0,,40.365648,109.984712
11206100,嘉兴石化有限公司,2018,3,石油、煤炭及其他燃料加工业,5828,1,0,,30.607840,121.062730
22547,綦江县苍南摩配有限公司,2006,1,铁路、船舶、航空航天和其他运输设备制造业,0,0,0,,29.022375,106.634064
35398,项城华丰国际皮革城有限公司,2012,3,皮革鞣制加工,12687,1,0,,33.440740,114.934747
36922,雅化集团绵阳实业有限公司,2012,2,炸药及火工产品制造,31129,0,0,,31.551192,104.846128
11211612,瀚蓝（安溪）固废处理有限公司,2016,4,垃圾焚烧发电,16968,1,0,,25.043696,118.226893
11635850,山东华盛农业药械有限责任公司,2017,3,机械化农业及园艺机具制造,23350,0,0,,35.019419,118.273229
11637056,青海华铁金属有限责任公司,2016,4,金属制品业,18477,0,0,,36.726681,101.180290
39848,山东丰元化学股份有限公司,2016,7,化学原料和化学制品制造业,13967,1,0,,34.571270,117.755900
40547,浙江杭州湾纺织品有限公司,2017,7,其他家用纺织制成品制造,14223,1,0,,30.060827,121.590543
39684,云南黄金有限责任公司镇沅分公司,2016,2,有色金属矿采选业,0,0,0,,24.003530,101.109194
11637663,攀钢集团西昌钢钒有限公司,2017,10,有色金属冶炼和压延加工业,8899,0,0,,27.740707,102.207435
11637682,武汉金凤凰纸业有限公司,2017,12,机制纸及纸板制造,12394,1,0,,30.306156,114.135804
41292,珍寿实业（商丘）有限公司,2010,1,皮革鞣制加工,60204,1,0,,34.453680,115.622560
42731,重庆天地药业有限责任公司,2017,4,中成药生产,41124,0,0,,30.336273,108.077476
11637836,哈尔滨市双琦环保资源利用有限公司,2018,6,垃圾焚烧发电,40858,0,0,,46.368536,127.641853
43847,健鼎（无锡）电子有限公司,,0,计算机、通信和其他电子设备制造业,5904,1,0,,31.631399,120.405349
11637873,安徽迪诺环保新材料科技有限公司,2019,4,有机化学原料制造,51000,1,0,,31.000000,117.796111
44289,安钢集团信阳钢铁有限责任公司,2015,5,炼钢,42,1,0,,32.483290,114.036240
47585,甘肃金达化工有限公司,2016,2,化学原料和化学制品制造业,47386,0,0,,36.478958,104.504633
844421,唐河县龙鑫明胶有限公司,2019,1,环境污染处理专用药剂材料制造,0,0,0,,32.664751,113.163536
11639187,安乡县晋煤金牛化工有限公司,2018,14,化学原料和化学制品制造业,224,1,0,,29.418896,112.151062
49535,会泽滇北工贸有限公司,2012,2,其他常用有色金属冶炼,21580,0,0,,26.557830,103.621740
50017,江阴兴澄特种钢铁有限公司,2016,5,炼钢,6570,1,0,,31.942860,120.339690
69648,江山化工有限公司,2016,2,化学原料和化学制品制造业,4642,0,0,,30.903083,112.312200
11643567,江西耀腾资源利用有限公司,,0,金属废料和碎屑加工处理,52884,0,0,,28.394923,118.053014
72588,朝阳新华钼业有限责任公司,,0,有色金属矿采选业,0,0,0,,41.416550,119.822428
11648750,义马环保电力公司,2019,11,电力、热力、燃气及水生产和供应业,13468,1,0,,34.732975,111.914110
52775,迁安市宏奥工贸有限公司,2018,22,石灰和石膏制造,9208,1,0,,40.000093,118.708060
11653276,深圳市东洋旺和实业有限公司,2016,3,电子元件及电子专用材料制造,10496,1,0,,22.715347,113.799225
53344,亚太森博（山东）浆纸有限公司,2016,24,木竹浆制造,23099,1,0,,35.376830,119.522540
11657635,桃江久通锑业有限公司,2017,3,有色金属冶炼和压延加工业,11526,1,0,,28.515614,112.143240
74758,阿尔发（广州）汽车配件有限公司,2014,1,汽车车身、挂车制造,0,0,0,,23.368942,113.133644
11659676,山西晋阳煤焦（集团）有限公司,2019,10,石油、煤炭及其他燃料加工业,42399,1,0,,37.569552,112.171325
56172,乌兰浩特钢铁有限责任公司,2018,27,铸造及其他金属制品制造,12168,1,0,,46.062141,122.064253
11661565,宁夏英力特化工股份公司,2018,5,化学原料和化学制品制造业,8860,0,0,,39.303717,106.782482
58597,云南铜业凯通有色金属有限公司,2019,5,金属制品业,13902,1,0,,26.123810,103.150730
77771,广西金秀利兴强矿产冶炼有限公司,2010,1,黑色金属矿采选业,0,0,0,,24.217980,110.024785
77930,大连固特异轮胎有限公司,,0,轮胎制造,0,0,0,,39.431810,121.923110
60875,重庆市华萃金属表面处理有限责任公司,2010,1,金属表面处理及热处理加工,15047,0,0,,29.485959,106.435819
11662191,四川普什醋酸纤维素有限责任公司,2016,3,化学原料和化学制品制造业,69813,0,0,,28.610000,104.929722
80466,扬州阿波罗蓄电池有限公司,2012,3,电池制造,0,0,0,,32.285600,119.435824
64375,大庆志飞生物化工有限公司,2017,4,其他调味品、发酵制品制造,31208,0,0,,46.572620,124.798410
11662253,湖南岳阳万鑫黄金公司,2018,5,贵金属冶炼,4942,0,0,,28.640172,113.561017
64742,安徽铜陵华安实业有限公司,2010,2,,50013,0,0,,30.891103,117.847767
65051,中国石化海南炼油化工有限公司,2016,9,化学原料和化学制品制造业,18228,1,0,,19.770056,109.198344
87543,盐城市新界电镀厂,2016,3,金属表面处理及热处理加工,0,0,0,,33.435991,120.146090
68454,中国黄金集团内蒙古矿业有限公司,2016,4,有色金属矿采选业,14601,1,0,,49.438924,117.279709
69437,江苏沙钢集团有限公司,2017,8,黑色金属冶炼和压延加工业,6136,1,0,,31.876070,120.550020
89977,泸州大洲化工有限公司,2017,2,有机化学原料制造,0,0,0,,29.260430,105.461300
90080,米易县安宁铁钛有限责任公司,2010,1,有色金属矿采选业,0,0,0,,26.779934,101.995337
90134,保定双帆蓄电池有限责任公司,,0,其他电池制造,0,0,0,,38.958285,115.582737
90734,大庆市牧源动物药业有限公司,2017,2,兽用药品制造,0,0,0,,46.824566,124.505590
71274,深圳市中金岭南有色金属股份有限公司韶关冶炼厂,2016,2,有色金属冶炼和压延加工业,10543,1,0,,24.717103,113.584554
71356,竹山县鑫源皂素有限责任公司,2017,2,生物化学农药及微生物农药制造,15208,1,0,,32.266956,110.095561
94211,九龙县山盛矿业有限公司,2018,3,有色金属矿采选业,0,0,0,,28.618133,101.668193
71516,华通电脑(惠州)有限公司,,0,计算器及货币专用设备制造,5276,1,0,,23.233897,114.139154
71626,广东依顿电子科技股份有限公司,,0,智能无人飞行器制造,2875,1,0,,22.703737,113.478790
71687,际华三五零九纺织有限公司,2016,4,棉纺纱加工,5694,1,0,,30.556230,113.842049
71861,湖北雅都恒兴纸业有限公司,2012,2,机制纸及纸板制造,4725,1,0,,31.601910,114.011490
72244,中国石油天然气股份有限公司辽河石化分公司,2017,10,精炼石油产品制造,14772,1,0,,41.197200,123.215704
72353,中海石油（中国）有限公司天津分公司绥中36-1作业区,,0,石油、煤炭及其他燃料加工业,14797,0,0,,40.088858,120.053015
72625,上海梅山钢铁股份有限公司,2017,13,炼铁,10263,1,0,,31.899749,118.628209
100162,大连燃气集团有限公司香周制气厂,2016,2,燃气生产和供应业,0,0,0,,38.937336,121.590182
77886,柳州市安弘有色金属厂,2019,7,铅锌冶炼,0,0,0,,24.400625,109.427002
109483,株洲市亿丰新材料有限责任公司,2017,3,滑动轴承制造,0,0,0,,27.783831,113.087850
335045,四川德华皮革制造有限公司,2018,2,皮革服装制造,0,0,0,,31.714647,104.714347
77207,四川启明星铝业有限责任公司,2018,2,铝冶炼,41368,0,0,,29.996310,103.747050
77326,陕西比迪欧化工有限公司,2019,8,,10078,0,0,,34.472080,109.719750
77328,汉中锌业有限责任公司,2018,29,铅锌冶炼,3843,1,0,,33.123499,106.807752
78051,济南裕兴化工有限责任公司,2019,60,其他基础化学原料制造,31459,0,0,,36.793081,116.896531
78055,吉林大黑山钼业股份有限公司,,0,有色金属矿采选业,33537,0,0,,43.447440,126.323120
78811,国电费县发电有限公司,2016,4,火力发电,23512,1,0,,35.319714,117.921409
78973,宝钛集团有限公司,2018,14,有色金属合金制造,437,1,0,,34.298850,107.263150
11669830,赤峰金剑铜业有限公司,2016,5,有色金属冶炼和压延加工业,1166,1,0,,42.207847,118.910960
79362,桐柏银矿有限责任公司,2018,3,其他采矿业,11817,0,0,,32.576260,113.399550
11669894,乌兰察布市华顺化工有限责任公司,,0,化学原料和化学制品制造业,67476,0,0,,41.066389,112.708333
281854,郴州雄风环保科技有限公司,,0,,20829,1,0,,25.580000,112.430000
120163,广西敏诚矿业有限公司,2012,1,铁合金冶炼,0,0,0,,23.588580,109.643720
79799,浙江智兴集团有限公司,2016,6,纺织业,14408,1,0,,30.237700,120.498420
81318,重庆万盛煤化有限责任公司,2011,2,无机酸制造,17211,0,0,,28.831750,106.782463
11670261,福建省冠能蓄电池有限公司,2014,1,电池制造,53793,1,0,,25.376709,117.210955
81620,石家庄柏坡正元化肥有限公司,2018,11,专项化学用品制造,10694,1,0,,38.252830,114.088400
81632,河北中润生态环保有限公司,2017,3,肥料制造,15359,0,0,,37.910843,114.517051
82473,合肥万达蓄电池厂,,0,电池制造,20378,1,0,,31.975160,117.271260
126168,内蒙古金山矿业有限公司,2013,1,有色金属矿采选业,0,0,0,,48.670880,116.824010
126427,赤峰博大氧化锌有限公司,2018,4,化学原料和化学制品制造业,0,0,0,,42.470462,119.665469
127214,湖南安福气门有限公司,2017,2,锅炉及原动设备制造,0,0,0,,29.463951,111.644636
11670354,亿达信能源有限公司,2016,6,石油、煤炭及其他燃料加工业,18853,0,0,,45.765706,130.568257
88145,呼伦贝尔东能化工有限公司,2018,4,基础化学原料制造,4581,1,0,,49.351713,119.676517
137817,广西沙钢锰业有限公司,2017,1,黑色金属冶炼和压延加工业,0,0,0,,23.106150,107.160920
138880,南京云开合金有限公司,2016,2,有色金属合金制造,0,0,0,,31.535390,119.076150
90121,保定飓风蓄电池有限公司,2017,2,其他电池制造,447,0,0,,38.786493,115.570389
90527,安徽亚兰德新能源材料股份有限公司,2017,4,通信系统设备制造,30206,0,0,,30.939167,117.480000
154626,西藏玉龙铜业股份有限公司,,0,有色金属矿采选业,0,0,0,,31.135152,97.178592
91235,浙江国镜药业有限公司,2018,6,中成药生产,31511,0,0,,28.067939,119.116453
162336,马尔康金鑫矿业有限公司,2016,1,有色金属矿采选业,0,0,0,,31.812680,101.906770
94122,安徽超威电源有限公司,2015,3,发电机及发电机组制造,17889,1,0,,30.759800,117.854590
94327,山东垦利石化有限责任公司,2014,2,石油、煤炭及其他燃料加工业,9856,0,0,,37.567229,118.568696
95128,柳州市振银有色金属有限公司,2017,4,金属制品业,24891,0,0,,24.230000,109.230000
95323,仙桃市中星电子材料有限公司,2018,9,电子真空器件制造,46576,1,0,,30.158496,113.659454
95511,中国石油化工股份有限公司茂名分公司化工分部,2012,2,精炼石油产品制造,16852,0,0,,21.675983,110.902515
98689,湖南新龙矿业有限责任公司,2018,3,有色金属矿采选业,4915,0,0,,27.473691,111.738816
99666,常州东方特钢有限公司,2016,5,有色金属冶炼和压延加工业,948,1,0,,31.602292,119.731987
99712,云南罗平锌电股份有限公司,2018,6,有色金属矿采选业,21597,0,0,,24.916535,104.314967
11674648,敦煌金龙（集团）有限责任公司老金厂金矿,2018,1,有色金属矿采选业,40165,0,0,,40.922222,94.972222
11674683,西和县青羊矿业有限责任公司,2019,1,采矿业,16444,0,0,,33.864444,105.323055
11674991,玉环电镀有限公司,2017,12,金属表面处理及热处理加工,13685,1,0,,28.225228,121.406463
99998,马关云铜锌业有限公司,2011,1,其他常用有色金属冶炼,8055,1,0,,22.945109,104.452421
100068,金华金星纸业有限公司,2017,12,其他纸制品制造,29242,1,0,,28.996480,119.487310
100430,内蒙古三爱富万豪氟化工有限公司,2019,3,化学原料和化学制品制造业,67338,0,0,,40.398048,113.181890
179555,晋城沁泽焦化有限公司,,0,炼焦,0,0,0,,35.577718,111.969113
101396,曲靖云能投新能源发电有限公司,2017,5,垃圾焚烧发电,9493,0,0,,26.237433,104.093800
986290,中钢集团赤峰金鑫矿业有限公司,2019,1,有色金属矿采选业,0,0,0,,42.403046,119.129617
716792,广西有色金属集团汇元锰业有限公司,2018,1,有色金属矿采选业,0,0,0,,23.697970,109.169170
101868,中国神华煤制油化工有限公司鄂尔多斯煤制油分公司,2016,3,黑色金属铸造,14630,1,0,,39.332422,110.163900
101879,山西省焦炭集团益兴焦化有限公司,,0,炼焦,41434,0,0,,37.121732,112.029946
102228,江西省屹立铜业有限公司,2016,2,其他未列明制造业,52864,0,0,,28.293800,117.697200
11675360,湖州市星鸿固体废物综合利用处置有限公司,2019,3,环境治理业,29049,0,0,,30.920230,120.011242
111753,唐山市丰南区群利金属制品有限公司,2018,3,铁合金冶炼,0,0,0,,39.573993,118.200789
181704,宁夏渝丰化工股份有限公司,,0,氮肥制造,8866,0,0,,37.499947,105.208210
104468,浙江方泉汽车标准件有限公司,2018,17,紧固件制造,20346,1,0,,30.581335,120.827120
182720,山西全盛化工有限责任公司,2014,1,炸药及火工产品制造,0,0,0,,39.992424,112.440661
106890,陕西煤业化工集团神木天元化工有限公司,2015,4,煤炭加工,10115,1,0,,38.701470,110.179328
107209,杞县新星皮革有限公司,2019,8,其他皮革制品制造,9199,1,0,,34.542638,114.726010
107556,武汉汉口绿色能源有限公司,2016,21,其他电力生产,31637,0,0,,30.694115,114.323298
107933,江永县潇湘化工有限公司,2017,6,其他基础化学原料制造,6578,0,0,,25.247325,111.375849
108072,浏阳市鑫利粉末冶金有限公司,2015,2,有色金属冶炼和压延加工业,7636,0,0,,27.933240,113.360861
110094,西和尖崖沟铅锌矿,2014,2,有色金属矿采选业,16446,0,0,,33.891291,105.436947
110422,蓝星硅材料有限公司,2016,4,基础化学原料制造,7165,0,0,,36.809752,103.210470
111927,河北万全宏宇化工有限责任公司,2005,1,化学农药制造,4112,1,0,,40.715130,114.543170
11678305,北方华锦化学工业股份有限公司,2017,13,化学原料和化学制品制造业,7373,0,0,,41.196196,122.008946
112049,湖北兴发化工集团股份有限公司（刘草坡化工厂）,,0,基础化学原料制造,32444,0,0,,31.142997,110.792205
112153,内蒙古包钢钢联股份有限公司焦化厂,2016,8,炼焦,8323,1,0,,40.650653,109.748192
112222,黑龙江省中再生废旧家电拆解有限公司,,0,金属废料和碎屑加工处理,21605,0,0,,46.596267,126.973551
11678816,天津绿亨化工有限公司,2017,1,化学农药制造,54337,0,0,,38.817883,117.474081
112490,浙江金华康恩贝生物制药有限公司,2014,2,化学药品原料药制造,20251,1,0,,29.074600,119.619515
112547,海门市化工原料厂有限公司,2016,5,日用化学产品制造,3715,1,0,,31.884190,121.318181
114464,钟祥市大生化工有限公司,2017,3,化学原料和化学制品制造业,23548,1,0,,31.267000,112.387910
115639,广水华鑫冶金工业有限公司,2010,1,钢压延加工,41470,1,0,,31.496370,114.011477
196517,广东康力日用制品有限公司,,0,日用塑料制品制造,0,0,0,,21.830480,112.029520
196519,广东大顶矿业股份有限公司,2016,1,有色金属矿采选业,0,0,0,,23.746965,114.696302
116479,大连华辰电镀有限公司,2018,5,金属表面处理及热处理加工,1334,0,0,,39.274460,122.038100
11685797,临沂金兴焦电有限责任公司,2018,10,热力生产和供应,37394,1,0,,34.969060,118.358519
117500,江西省宜丰县万国矿业有限公司,2016,3,采矿业,6435,1,0,,28.460504,115.121877
117523,江西省营前矿业有限公司,2018,7,有色金属矿采选业,6436,1,0,,25.915190,114.301980
117577,赣州市南康区汇丰矿业有限公司,2018,8,有色金属矿采选业,8590,1,0,,25.727110,114.632120
118306,武陟县明生皮业有限公司,2013,2,其他皮革制品制造,12465,1,0,,35.124058,113.216380
118331,玛纳斯祥云化纤有限公司,2018,5,其他未列明制造业,8063,1,0,,44.650353,86.181960
209121,南通逸群运动器材有限公司,2016,3,体育用品制造,0,0,0,,32.302543,120.510589
118619,涿鹿金隅水泥有限公司,2015,2,水泥制品制造,15226,0,0,,40.146334,115.273317
119972,南丹县正华冶炼厂(普通合伙),2013,2,有色金属冶炼和压延加工业,25022,0,0,,24.520000,107.340000
219383,新乡市永强环保技术有限公司,2014,1,非金属废料和碎屑加工处理,0,0,0,,35.306970,114.071312
122198,陕西安康江华（集团）有限公司,2018,4,水泥制造,0,0,0,,32.719178,109.068639
224006,株洲金瑞锌材有限责任公司,2017,4,其他常用有色金属冶炼,0,0,0,,26.485136,113.728589
226009,福鼎市益民垃圾处理有限公司,2015,1,环境卫生管理,0,0,0,,27.324110,120.195985
122976,钦州市进达工贸有限公司,2016,2,皮革制品制造,24939,1,0,,21.975200,108.536840
123154,比亚迪汽车有限公司,2016,5,汽车整车制造,616,1,0,,34.030874,108.709193
123257,白银中天化工有限公司,2016,2,化学原料和化学制品制造业,37014,0,0,,36.555378,104.705872
123261,泾川县汇丰重油仓储有限责任公司,2013,1,交通运输、仓储和邮政业,31872,0,0,,35.317599,107.710670
227092,隆尧县魏庄镇镀锌工业区,,0,通用零部件制造,0,0,0,,36.926643,115.577134
123623,永嘉县广义表面处理有限公司,2016,4,金属表面处理及热处理加工,25775,1,0,,28.106005,120.693913
227418,唐山中再生资源开发有限公司,2018,2,,0,0,0,,39.869537,117.630443
227517,香河万水环保材料有限公司,,0,无机盐制造,0,0,0,,39.767347,117.116895
124540,上海赛科石油化工有限责任公司,2019,2,其他基础化学原料制造,10272,1,0,,31.206462,121.400636
125634,山西兴高能源股份有限公司,2015,2,炼焦,30631,1,0,,35.726111,112.801111
126183,通辽金煤化工有限公司,2016,7,化学原料和化学制品制造业,17315,1,0,,43.685340,122.192000
126659,神华乌海能源有限责任公司西来峰煤化工分公司焦化厂,,0,炼焦,10585,1,0,,39.385396,106.898333
234767,云南省玉溪易和环境技术有限公司,2017,3,,0,0,0,,24.387681,102.513136
127106,广西盛虎金属制品有限公司,,0,金属工具制造,24866,0,0,,22.764685,108.259216
127156,柳州市融锌矿业有限责任公司,,0,有色金属矿采选业,24893,0,0,,25.054578,109.515637
11691227,山西禹王煤炭气化有限公司,2018,8,煤炭开采和洗选业,73028,1,0,,38.441944,112.620833
242868,新疆鑫旺矿业有限公司,2018,3,有色金属矿采选业,0,0,0,,48.142193,86.305890
245438,句容宁武新材料发展有限公司,2015,2,专用化学产品制造,0,0,0,,32.008545,119.246380
247617,克拉玛依博达生态环保科技有限责任公司,2015,1,危险废物治理,0,0,0,,45.600087,85.081307
248632,新源县金鼎工贸物流有限公司,2015,1,黑色金属矿采选业,0,0,0,,43.919989,81.273088
127934,黄冈永安药业有限公司,2014,2,化学原料和化学制品制造业,5412,1,0,,30.617070,114.898280
127945,贺州市金琪矿业有限责任公司,2018,6,有色金属矿采选业,24992,0,0,,24.230000,111.500000
128469,祁东县鸟江大岭铅锌矿,2013,2,有色金属矿采选业,9153,0,0,,26.609309,112.149456
3450407,建水县建新化工冶炼有限公司,2018,3,常用有色金属冶炼,0,0,0,,23.595974,102.917508
129595,北方铜业股份有限公司铜矿峪矿,2019,2,有色金属矿采选业,26899,0,0,,35.362036,111.680804
257011,纬创资通（成都）有限公司,,0,计算机整机制造,0,0,0,,30.462749,103.979790
258953,金驰能源材料有限公司,,0,,0,0,0,,28.498860,112.802580
134265,甘肃刘化（集团）有限责任公司,2007,1,肥料制造,26394,1,0,,35.982064,103.289882
135595,赤峰云铜有色金属有限公司,2016,1,铜冶炼,1179,1,0,,41.925870,118.733970
141531,雅化集团三台化工有限公司,,0,有机化学原料制造,31757,0,0,,31.215647,104.982842
141532,雅化集团旺苍化工有限公司,,0,炸药及火工产品制造,31758,0,0,,32.233817,106.323296
11696285,鄂州市鸿泰钢铁有限公司,2016,6,黑色金属冶炼和压延加工业,2029,1,0,,30.533633,114.754907
145366,甘肃阳坝铜业有限责任公司,,0,有色金属矿采选业,2604,0,0,,32.995160,105.765860
145375,湖北兴瑞硅材料有限公司,2016,3,化学原料和化学制品制造业,31766,0,0,,30.552876,111.416848
145397,宜都兴发化工有限公司,2017,6,化学原料和化学制品制造业,20134,1,0,,30.273130,111.523750
146065,内蒙古荣信化工有限公司,,0,基础化学原料制造,20368,1,0,,40.283548,110.051105
148634,唐山三友集团兴达化纤有限公司,2015,1,化纤浆粕制造,11466,1,0,,39.255950,118.211760
281229,中国有色集团抚顺红透山矿业有限公司（抚顺红透山铜矿）,,0,采矿业,16628,0,0,,42.019101,124.532606
156216,黑龙江多宝山铜业股份有限公司,2016,1,有色金属矿采选业,33983,0,0,,50.245516,125.776652
156691,陵川金隅水泥有限公司,2017,2,水泥、石灰和石膏制造,7612,1,0,,35.842270,113.349220
156699,曲阳金隅水泥有限公司,2017,7,水泥制造,9497,0,0,,38.809940,114.635830
156709,宣化金隅水泥有限公司,2010,1,水泥制造,41604,1,0,,40.766973,115.007616
3449764,长福煤气焦化有限公司,2018,2,炼焦,0,0,0,,36.470135,113.362013
157307,尧柏特种水泥集团有限公司蒲城分公司,,0,水泥制造,16736,1,0,,35.068766,109.588093
157309,陕西实丰水泥股份有限公司,2018,1,水泥制造,10134,1,0,,34.931590,109.220780
285225,江西紫荆颜料化工有限公司,2018,5,工业颜料制造,0,0,0,,27.007680,114.288403
159101,富鼎精密工业(郑州)有限公司,,0,电子真空器件制造,59272,0,0,,34.739264,113.858431
289337,大连建华污泥处理有限公司,2016,1,其他污染治理,0,0,0,,38.971250,121.852020
161422,浙江普洛康裕制药有限公司,2018,2,化学药品制剂制造,29342,1,0,,29.152740,120.298657
164518,清远市新绿环境技术有限公司,2018,1,废弃资源综合利用业,48384,0,0,,23.704313,112.893685
168285,浙江江铜富冶和鼎铜业有限公司,2016,1,常用有色金属冶炼,73458,1,0,,30.023657,119.758916
293924,哈密和鑫矿业有限公司,,0,采矿业,0,0,0,,42.839971,93.501754
293948,西部黄金哈密金矿有限责任公司,,0,其他未列明制造业,0,0,0,,42.831585,93.499451
11696758,桐乡市晨光皮革有限公司,2017,8,其他皮革制品制造,73653,0,0,,30.486550,120.524800
168716,中国黄金集团夹皮沟矿业有限公司,,0,有色金属矿采选业,45532,0,0,,42.876170,127.450339
294508,营口盛海化工有限公司,2016,1,其他非金属矿物制品制造,0,0,0,,40.611548,122.582712
172172,阳煤集团和顺化工有限公司,2018,3,肥料制造,27047,0,0,,37.289510,113.642210
173780,四川顺城化工股份有限公司,,0,非金属矿采选业,31829,0,0,,29.608378,103.744091
11698418,遂宁市宏成电源科技有限公司,2018,4,电池制造,11268,0,0,,30.591887,105.297297
297127,广西广银铝业有限公司田阳分公司,2015,1,有色金属冶炼和压延加工业,0,0,0,,23.811250,106.824124
299701,铜陵泰富矿业有限公司选矿厂,,0,采矿业,0,0,0,,30.927375,117.979672
299732,江门市新会区崖门定点电镀工业基地,,0,金属制品业,0,0,0,,22.279640,113.060608
300013,山东国邦药业有限公司,,0,化学药品原料药制造,0,0,0,,37.010601,119.117331
299968,扬州祥发资源利用有限公司,,0,废弃资源综合利用业,0,0,0,,32.474804,119.782337
245851,金堆城钼业股份有限公司矿冶分公司,2019,6,有色金属矿采选业,0,0,0,,34.281487,109.970043
301319,江苏正大清江制药有限公司,,0,医药制造业,0,0,0,,33.595320,119.076830
301512,广西田阳金鹏冶炼有限公司,,0,常用有色金属冶炼,0,0,0,,23.725030,106.830993
175055,郴州市青兰胜旺有色金属有限责任公司,,0,有色金属矿采选业,1023,0,0,,25.084722,112.725278
175408,大田奇峰矿业有限公司,2018,4,黑色金属矿采选业,15863,0,0,,25.536308,117.725746
175457,大冶市大垴山金矿,,0,采矿业,1506,0,0,,29.815626,115.065655
303684,浙江天乐和乐电子有限公司,,0,音响设备制造,0,0,0,,29.590070,120.849060
303736,奥德表面处理有限公司,,0,金属制品业,0,0,0,,29.685080,103.640608
304034,四川希望水电开发有限公司（盐化事业部）,2017,1,化学原料和化学制品制造业,0,0,0,,31.879382,103.329227
304036,四川九寨沟县马脑壳金矿开发有限责任公司,,0,采矿业,0,0,0,,33.490578,104.023678
175902,肥城石横焦化有限公司,,0,煤炭加工,2066,1,0,,36.233318,116.541978
176133,福建省大田县湘闽矿业有限公司,2018,2,黑色金属矿采选业,15896,0,0,,26.343682,116.484475
306269,青岛惠城环保科技股份有限公司,,0,,0,0,0,,36.043419,120.191664
176389,甘肃省肃北县金鹰黄金有限责任公司,2016,1,贵金属冶炼,16330,0,0,,39.861600,96.308300
11706044,肇庆市新荣昌环保股份有限公司,2013,1,金属废料和碎屑加工处理,15951,1,0,,22.937394,112.350724
312218,南通桑德森蓝环保科技有限公司,,0,,60685,0,0,,32.038708,121.060811
307641,阳新鹏富矿业有限公司,,0,采矿业,0,0,0,,29.911550,115.402299
308553,宁波金田铜业股份有限公司,,0,,0,0,0,,29.992010,121.427040
177145,桂阳县城郊宝岭矿业有限责任公司,2017,1,有色金属矿采选业,3459,0,0,,25.740151,112.699596
11707561,罗盖特（中国）营养食品有限公司,2018,9,化学原料和化学制品制造业,7970,1,0,,34.648046,119.204063
11707571,江苏镔鑫钢铁集团有限公司,2019,21,黑色金属冶炼和压延加工业,6141,1,0,,35.110376,119.284549
325861,天水长城开关有限公司,,0,其他未列明制造业,0,0,0,,34.578870,105.773550
334555,伽师县铜辉矿业有限责任公司,,0,有色金属矿采选业,0,0,0,,39.829349,77.093698
177345,海南武华矿业有限责任公司,2014,1,有色金属矿采选业,27815,0,0,,19.075000,108.882000
334677,江西福丰化工有限公司,,0,其他非金属矿物制品制造,0,0,0,,28.578621,118.143200
11709185,山东众音化学科技有限公司,2014,6,电力、热力生产和供应业,23509,1,0,,37.175911,122.002316
335025,成都南车天利表面工程技术有限责任公司,,0,,0,0,0,,30.680685,104.137451
335087,四川汉鑫矿业发展有限公司,2017,1,有色金属矿采选业,0,0,0,,27.409483,102.175380
335111,资中县绿路再生能源利用有限责任公司,2017,3,废弃资源综合利用业,0,0,0,,29.611915,104.720394
335113,四川惊雷压力容器制造有限责任公司,,0,金属压力容器制造,0,0,0,,29.146141,104.678832
335115,四川科龙达能源科技有限公司,,0,,0,0,0,,30.005485,103.745800
335119,丹巴美河矿业有限责任公司,2017,2,有色金属矿采选业,0,0,0,,30.877085,101.887558
2436896,扬州盛兴金属再生利用有限公司,2019,4,固体废物治理,0,0,0,,33.002920,119.429540
343917,福建泉州大华蓄电池有限公司,2016,3,电容器及其配套设备制造,0,0,0,,25.018290,118.620790
178061,湖北丹澳药业有限公司,2015,1,中成药生产,4599,1,0,,32.502612,111.530388
178210,湖南瑞兴锌业有限公司,2015,3,其他基础化学原料制造,4839,1,0,,27.609539,112.944434
178220,湖南省郴州市苏仙区保险丝厂,,0,其他制造业,4850,0,0,,26.290000,113.350000
178402,葫芦岛市连山区晟鑫矿业有限公司,,0,金属制品业,4990,1,0,,40.787451,120.599595
3402800,九江金源(恒生)化纤有限公司,2019,1,化学纤维制造业,0,0,0,,29.616767,116.124281
178743,会理县白草有色金属选矿厂,,0,有色金属矿采选业,5468,0,0,,26.321000,102.027439
348770,西昌永盛实业有限责任公司,2017,2,炸药及火工产品制造,0,0,0,,27.693600,102.282862
365140,云南锡业股份有限公司老厂分公司,2016,1,有色金属矿采选业,0,0,0,,23.295745,103.207881
388753,成都市金克星气体有限公司,2016,1,基础化学原料制造,0,0,0,,30.944241,103.802291
414403,四川胜丰磷化工有限责任公司,2016,1,肥料制造,0,0,0,,31.164668,104.223396
414852,德阳致达精密电子有限公司,,0,模具制造,0,0,0,,31.377807,104.551818
422237,自贡市莲花垃圾处理厂,2017,3,环境治理业,0,0,0,,29.181670,104.882450
433010,新宾满族自治县振兴矿业有限公司,2016,1,有色金属矿采选业,0,0,0,,41.446786,124.621391
438859,辽宁宝铂科技有限公司,2017,2,,0,0,0,,41.188135,122.850592
447303,黑龙江陆玖矿业有限公司,2016,1,采矿业,0,0,0,,46.995342,122.875880
454535,江西画眉坳钨业有限公司,2016,1,其他常用有色金属冶炼,0,0,0,,26.494708,115.813517
178973,集安市财源兴达选矿有限公司,,0,非金属矿采选业,5685,0,0,,41.361111,125.709167
179116,健鼎(湖北)电子有限公司,,0,电子真空器件制造,5902,1,0,,30.326604,113.429456
179275,江西宏宇能源发展有限公司,2018,7,无机碱制造,6275,1,0,,28.050722,115.536560
506625,四川广融紧固器材有限公司,2016,1,紧固件制造,0,0,0,,32.397440,105.791380
179332,江西岿美山钨业有限公司,,0,,6385,1,0,,24.669710,114.892200
179342,江西盘古山钨业有限公司,2014,1,有色金属矿采选业,6400,1,0,,25.641750,115.424980
179497,金平长安矿业有限公司,,0,金矿采选,21529,0,0,,22.799552,103.035358
512756,云南大地丰源环保有限公司,2017,2,固体废物治理,0,0,0,,25.021900,102.694830
179842,克孜勒苏新蓉皮革有限责任公司,,0,皮革鞣制加工,7025,0,0,,39.745070,76.239088
517276,新时代民爆（辽宁）股份有限公司,2016,1,炸药及火工产品制造,0,0,0,,41.974887,121.670045
180111,耒阳市焱鑫有色金属有限公司,2017,3,锑冶炼,7219,0,0,,26.494220,112.946820
535469,吉化集团吉林市锦江油化厂,,0,合成材料制造,0,0,0,,43.873812,126.644921
180507,灵石县鑫和垃圾焚烧发电有限公司,2018,3,垃圾焚烧发电,18681,0,0,,36.814167,111.765000
537320,珠海润都制药股份有限公司,2018,2,化学药品原料药制造,0,0,0,,22.060960,113.359010
538394,四川兴华药业有限责任公司,,0,兽用药品制造,0,0,0,,31.042437,106.412586
541344,哈尔滨市益农生化制品开发集团有限公司,,0,农药制造,0,0,0,,45.702882,126.544789
555038,辽阳新时代民爆有限责任公司,,0,炸药及火工产品制造,0,0,0,,41.122510,123.185940
562730,江苏华富储能新技术股份有限公司,,0,电池制造,0,0,0,,32.832204,119.488036
1339479,湖北金盛兰冶金科技有限公司,,0,,44908,1,0,,29.922850,113.828420
569164,四川之江化工新材料有限公司,,0,基础化学原料制造,0,0,0,,30.448560,105.675740
582381,新宁县龙口矿业开发有限责任公司,,0,有色金属矿采选业,0,0,0,,27.316148,111.074666
586751,四川绵阳三力股份有限公司,2016,1,机械零部件加工,0,0,0,,31.517214,104.648351
180710,鲁西化工集团股份有限公司氯碱化工分公司,2015,3,无机酸制造,7816,1,0,,36.356111,116.149167
600185,绵阳市川金机械制造有限公司,,0,文教、工美、体育和娱乐用品制造业,0,0,0,,31.508110,104.773070
603547,洪江市三兴冶金炉料有限责任公司,,0,炼铁,0,0,0,,27.257180,109.874430
610950,江西赣州国泰特种化工有限责任公司,,0,炸药、火工及焰火产品制造,0,0,0,,26.165053,115.319452
611069,广西华鑫化工有限公司,,0,化学原料和化学制品制造业,0,0,0,,24.284490,111.012590
624113,广元市海鹏生物科技有限公司,,0,其他未列明制造业,0,0,0,,32.436706,105.777625
624379,阜康市泰华煤焦化工有限公司,2017,1,煤炭加工,0,0,0,,44.081431,88.444170
627718,遂川县金达电化有限公司,,0,其他基础化学原料制造,0,0,0,,27.110877,114.970544
181099,孟州市万博皮毛厂,,0,皮革、毛皮、羽毛及其制品和制鞋业,8213,0,0,,35.509166,113.451666
181143,冕宁县东立矿业有限公司,,0,有色金属矿采选业,20205,0,0,,28.160000,101.870000
639565,华油天然气广安有限公司,,0,石油和天然气开采业,0,0,0,,30.448060,106.652080
181227,内蒙古大唐国际克什克腾煤制天然气有限责任公司,2018,7,燃气生产和供应业,8339,1,0,,43.060416,116.791588
181488,南宫市泉源毛皮制品厂,2018,3,皮革、毛皮、羽毛及其制品和制鞋业,24345,0,0,,37.211666,115.669722
653451,西藏远征包装有限公司,,0,包装装潢及其他印刷,0,0,0,,29.600970,90.989990
660944,广州市高士实业有限公司,2018,1,,0,0,0,,23.295030,113.241086
664249,十堰友信汽车零件加工有限公司,2014,1,汽车车身、挂车制造,0,0,0,,32.608217,110.769758
665912,甘肃洛坝有色金属集团有限公司,,0,有色金属矿采选业,0,0,0,,33.752820,106.094702
666571,四川内江汇鑫制药有限公司,,0,化学药品原料药制造,0,0,0,,29.535180,104.988660
669712,四川绵竹永龙生物制品有限公司,,0,生物药品制品制造,0,0,0,,31.376768,104.288576
678713,乐山飞舸模具有限公司,,0,化工、木材、非金属加工专用设备制造,0,0,0,,29.544590,103.727310
680734,淮南市顺辉锚固有限公司,,0,其他未列明制造业,0,0,0,,32.589330,116.982840
693290,桃江县矿山化工有限责任公司,,0,石灰和石膏制造,0,0,0,,28.281839,112.274110
703647,江西金安林产实业有限公司,,0,专用化学产品制造,0,0,0,,27.026713,114.927743
710903,成都百事兴科技实业有限公司,2017,5,生物药品制品制造,0,0,0,,30.211450,103.531591
712516,成都市托展新材料有限公司,,0,涂料、油墨、颜料及类似产品制造,0,0,0,,30.458872,103.868942
715195,陕西瑞科新材料股份有限公司,,0,农副食品加工业,0,0,0,,34.312668,107.261581
716182,洋浦傲立石化有限公司,,0,专用化学产品制造,0,0,0,,19.784230,109.211480
720029,古田县聚丰合金有限公司,,0,黑色金属冶炼和压延加工业,0,0,0,,26.634350,119.193600
738455,常宁市沿江锌业有限责任公司,2016,3,无机盐制造,0,0,0,,26.414290,112.398530
739736,湖南四维矿业发展有限公司邵阳县公司,,0,有色金属矿采选业,0,0,0,,26.888870,111.468948
742864,黄石新铁矿业有限公司,,0,黑色金属矿采选业,0,0,0,,30.204587,114.904814
182094,沁阳市锌茂化工有限公司,2017,2,铅锌冶炼,9310,0,0,,35.168853,112.791154
761431,朝阳黑猫伍兴歧炭黑有限责任公司,,0,专用化学产品制造,0,0,0,,41.600456,120.427900
763765,唐河县鸿祥明胶有限公司,2016,2,环境污染处理专用药剂材料制造,0,0,0,,32.625651,112.946586
766022,漳州佳联化工有限公司,,0,涂料制造,0,0,0,,24.463364,117.557406
